<Airports>
 <Airport ID="01ID" Name="LAVA HOT SPRINGS AIRPORT">
  <Location Lat="42.608250" Lon="-112.032461"/>
  <Runways>
   <Runway>14</Runway>
   <Runway>32</Runway>
  </Runways>
 </Airport>
 <Airport ID="01NK" Name="GRANVILLE AIRPORT">
  <Location Lat="43.425000" Lon="-73.261944"/>
  <Runways>
   <Runway>16</Runway>
   <Runway>34</Runway>
  </Runways>
 </Airport>
 <Airport ID="01WI" Name="PREHN CRANBERRY COMP AIRPORT">
  <Location Lat="44.010000" Lon="-90.389167"/>
  <Runways>
   <Runway>01</Runway>
   <Runway>19</Runway>
  </Runways>
 </Airport>
 <Airport ID="02WA" Name="CAWLEYS SOUTH PRAIRI AIRPORT">
  <Location Lat="47.152325" Lon="-122.094003"/>
  <Runways>
   <Runway>16</Runway>
   <Runway>34</Runway>
  </Runways>
 </Airport>
 <Airport ID="04WN" Name="STILLWATER CREEK AIRPORT">
  <Location Lat="46.958359" Lon="-119.638820"/>
  <Runways>
   <Runway>11</Runway>
   <Runway>29</Runway>
  </Runways>
 </Airport>
 <Airport ID="06FA" Name="GWINN AIRPORT">
  <Location Lat="26.908153" Lon="-80.328414"/>
  <Runways>
   <Runway>09</Runway>
   <Runway>27</Runway>
  </Runways>
 </Airport>
 <Airport ID="06WN" Name="WESTERN AIRPORT">
  <Location Lat="46.924986" Lon="-122.553039"/>
  <Runways>
   <Runway>09</Runway>
   <Runway>27</Runway>
  </Runways>
 </Airport>
 <Airport ID="07FA" Name="OCEAN REEF CLUB AIRPORT">
  <Location Lat="25.325392" Lon="-80.274775"/>
  <Runways>
   <Runway>04</Runway>
   <Runway>22</Runway>
  </Runways>
 </Airport>
 <Airport ID="07MT" Name="GLASGOW INDUSTRIAL AIRPORT">
  <Location Lat="48.421108" Lon="-106.527703"/>
  <Runways>
   <Runway>10</Runway>
   <Runway>28</Runway>
  </Runways>
 </Airport>
 <Airport ID="09CL" Name="ALTA SIERRA AIRPORT">
  <Location Lat="39.113783" Lon="-121.056614"/>
  <Runways>
   <Runway>01</Runway>
   <Runway>19</Runway>
  </Runways>
 </Airport>
 <Airport ID="0TE7" Name="LBJ RANCH AIRPORT">
  <Location Lat="30.251814" Lon="-98.622531"/>
  <Runways>
   <Runway>17</Runway>
   <Runway>35</Runway>
  </Runways>
 </Airport>
 <Airport ID="0XA4" Name="SEVEN CS RANCH AIRPORT">
  <Location Lat="27.997111" Lon="-98.882861"/>
  <Runways>
   <Runway>15</Runway>
   <Runway>33</Runway>
  </Runways>
 </Airport>
 <Airport ID="0XA5" Name="74 RANCH AIRPORT">
  <Location Lat="28.685383" Lon="-98.383117"/>
  <Runways>
   <Runway>14</Runway>
   <Runway>32</Runway>
  </Runways>
 </Airport>
 <Airport ID="10CO" Name="MACK MESA AIRPORT">
  <Location Lat="39.268111" Lon="-108.864028"/>
  <Runways>
   <Runway>07</Runway>
   <Runway>25</Runway>
  </Runways>
 </Airport>
 <Airport ID="11WY" Name="THOMPSON CREEK OILFI AIRPORT">
  <Location Lat="44.958606" Lon="-104.868656"/>
  <Runways>
   <Runway>07</Runway>
   <Runway>25</Runway>
  </Runways>
 </Airport>
 <Airport ID="12LS" Name="HAINS AIRPORT">
  <Location Lat="30.178611" Lon="-92.285000"/>
  <Runways>
   <Runway>01</Runway>
   <Runway>19</Runway>
  </Runways>
 </Airport>
 <Airport ID="12NK" Name="WESTPORT AIRPORT">
  <Location Lat="44.158386" Lon="-73.432906"/>
  <Runways>
   <Runway>01</Runway>
   <Runway>19</Runway>
  </Runways>
 </Airport>
 <Airport ID="14ME" Name="RING HILL AIRPORT">
  <Location Lat="44.792570" Lon="-69.070322"/>
  <Runways>
   <Runway>16</Runway>
   <Runway>34</Runway>
  </Runways>
 </Airport>
 <Airport ID="17AR" Name="BREDLOW FARM AIRPORT">
  <Location Lat="34.533428" Lon="-92.100144"/>
  <Runways>
   <Runway>18</Runway>
   <Runway>36</Runway>
  </Runways>
 </Airport>
 <Airport ID="17FL" Name="JUMBOLAIR AIRPORT">
  <Location Lat="29.280253" Lon="-82.124814"/>
  <Runways>
   <Runway>18</Runway>
   <Runway>36</Runway>
  </Runways>
 </Airport>
 <Airport ID="17NK" Name="RE-DUN AIRPORT">
  <Location Lat="42.456945" Lon="-76.950834"/>
  <Runways>
   <Runway>17</Runway>
   <Runway>35</Runway>
  </Runways>
 </Airport>
 <Airport ID="17XS" Name="QUAHADI RANCH AIRPORT">
  <Location Lat="32.177764" Lon="-98.435050"/>
  <Runways>
   <Runway>01</Runway>
   <Runway>19</Runway>
  </Runways>
 </Airport>
 <Airport ID="18AZ" Name="SKY RANCH AT CAREFRE AIRPORT">
  <Location Lat="33.818095" Lon="-111.897925"/>
  <Runways>
   <Runway>06</Runway>
   <Runway>24</Runway>
  </Runways>
 </Airport>
 <Airport ID="18FD" Name="SKY RANCH AIRPORT">
  <Location Lat="30.854075" Lon="-86.667178"/>
  <Runways>
   <Runway>09</Runway>
   <Runway>27</Runway>
  </Runways>
 </Airport>
 <Airport ID="19MT" Name="N BAR RANCH AIRPORT">
  <Location Lat="46.838070" Lon="-108.936834"/>
  <Runways>
   <Runway>06</Runway>
   <Runway>24</Runway>
  </Runways>
 </Airport>
 <Airport ID="1CO5" Name="MELON AIRPORT">
  <Location Lat="38.015286" Lon="-103.699117"/>
  <Runways>
   <Runway>08</Runway>
   <Runway>18</Runway>
   <Runway>26</Runway>
   <Runway>36</Runway>
  </Runways>
 </Airport>
 <Airport ID="1TX4" Name="NEW GULF AIRPORT">
  <Location Lat="29.273342" Lon="-95.886903"/>
  <Runways>
   <Runway>15</Runway>
   <Runway>33</Runway>
  </Runways>
 </Airport>
 <Airport ID="1VA1" Name="MICRO AIRPORT">
  <Location Lat="36.736133" Lon="-80.445408"/>
  <Runways>
   <Runway>08</Runway>
   <Runway>26</Runway>
  </Runways>
 </Airport>
 <Airport ID="1XA2" Name="CHASE INDUSTRIAL AIRPORT">
  <Location Lat="28.362445" Lon="-97.661917"/>
  <Runways>
   <Runway>13</Runway>
   <Runway>31</Runway>
  </Runways>
 </Airport>
 <Airport ID="1XA4" Name="MIKESKA AIRPORT">
  <Location Lat="29.873839" Lon="-96.004400"/>
  <Runways>
   <Runway>15</Runway>
   <Runway>33</Runway>
  </Runways>
 </Airport>
 <Airport ID="20GA" Name="EARL L. SMALL JR. FI AIRPORT">
  <Location Lat="33.756556" Lon="-84.885064"/>
  <Runways>
   <Runway>10</Runway>
   <Runway>28</Runway>
  </Runways>
 </Airport>
 <Airport ID="21FA" Name="ROCKLEDGE AIRPORT">
  <Location Lat="28.298342" Lon="-80.718664"/>
  <Runways>
   <Runway>18</Runway>
   <Runway>36</Runway>
  </Runways>
 </Airport>
 <Airport ID="23MU" Name="OSCEOLA MUN AIRPORT">
  <Location Lat="38.018583" Lon="-93.693222"/>
  <Runways>
   <Runway>18</Runway>
   <Runway>36</Runway>
  </Runways>
 </Airport>
 <Airport ID="24MO" Name="MISTWOOD AIRPORT">
  <Location Lat="38.133364" Lon="-92.833522"/>
  <Runways>
   <Runway>07</Runway>
   <Runway>25</Runway>
  </Runways>
 </Airport>
 <Airport ID="25TS" Name="MILLER AIRPORT">
  <Location Lat="36.091700" Lon="-102.415745"/>
  <Runways>
   <Runway>17</Runway>
   <Runway>35</Runway>
  </Runways>
 </Airport>
 <Airport ID="29IA" Name="HILLTOP AIRPORT">
  <Location Lat="40.752222" Lon="-95.626389"/>
  <Runways>
   <Runway>17</Runway>
   <Runway>35</Runway>
  </Runways>
 </Airport>
 <Airport ID="2CA4" Name="BLACKINTON AIRPORT">
  <Location Lat="33.258925" Lon="-117.092253"/>
  <Runways>
   <Runway>17</Runway>
   <Runway>35</Runway>
  </Runways>
 </Airport>
 <Airport ID="2CN4" Name="PARAMOUNT FARMS AIRPORT">
  <Location Lat="35.666389" Lon="-119.896389"/>
  <Runways>
   <Runway>16</Runway>
   <Runway>34</Runway>
  </Runways>
 </Airport>
 <Airport ID="2IL9" Name="MEADOW CREEK AIRPORT">
  <Location Lat="41.432811" Lon="-87.781714"/>
  <Runways>
   <Runway>04</Runway>
   <Runway>22</Runway>
  </Runways>
 </Airport>
 <Airport ID="2KS6" Name="FLYING H AIRPORT">
  <Location Lat="39.750278" Lon="-96.026667"/>
  <Runways>
   <Runway>18</Runway>
   <Runway>36</Runway>
  </Runways>
 </Airport>
 <Airport ID="2MD5" Name="HOBY WOLF AIRPORT">
  <Location Lat="39.407945" Lon="-76.927556"/>
  <Runways>
   <Runway>02</Runway>
   <Runway>20</Runway>
  </Runways>
 </Airport>
 <Airport ID="2MI5" Name="SOMERVILLE AIRPORT">
  <Location Lat="42.941697" Lon="-85.486411"/>
  <Runways>
   <Runway>09</Runway>
   <Runway>27</Runway>
  </Runways>
 </Airport>
 <Airport ID="2NR2" Name="ELKINS FIELD">
  <Location Lat="34.457778" Lon="-78.618333"/>
  <Runways>
   <Runway>01</Runway>
   <Runway>19</Runway>
  </Runways>
 </Airport>
 <Airport ID="2SC8" Name="GASTON AIRPORT">
  <Location Lat="33.786820" Lon="-81.094817"/>
  <Runways>
   <Runway>11</Runway>
   <Runway>29</Runway>
  </Runways>
 </Airport>
 <Airport ID="2TA8" Name="EL COYOTE RANCH AIRPORT">
  <Location Lat="26.858278" Lon="-98.221750"/>
  <Runways>
   <Runway>13</Runway>
   <Runway>31</Runway>
  </Runways>
 </Airport>
 <Airport ID="2VG2" Name="UPPERVILLE AIRPORT">
  <Location Lat="38.971775" Lon="-77.869717"/>
  <Runways>
   <Runway>13</Runway>
   <Runway>31</Runway>
  </Runways>
 </Airport>
 <Airport ID="2XA0" Name="FOARD CO AIRPORT">
  <Location Lat="33.979250" Lon="-99.712872"/>
  <Runways>
   <Runway>17</Runway>
   <Runway>35</Runway>
  </Runways>
 </Airport>
 <Airport ID="2XS2" Name="INDIO-FAITH AIRPORT">
  <Location Lat="28.263386" Lon="-100.162772"/>
  <Runways>
   <Runway>15</Runway>
   <Runway>33</Runway>
  </Runways>
 </Airport>
 <Airport ID="31CD" Name="DIAMOND STAR RANCH AIRPORT">
  <Location Lat="37.869750" Lon="-104.789806"/>
  <Runways>
   <Runway>04</Runway>
   <Runway>22</Runway>
  </Runways>
 </Airport>
 <Airport ID="31VA" Name="ABERDEEN FIELD">
  <Location Lat="37.020767" Lon="-76.588617"/>
  <Runways>
   <Runway>02</Runway>
   <Runway>20</Runway>
  </Runways>
 </Airport>
 <Airport ID="37XA" Name="SKYDIVE HOUSTON AIRPORT">
  <Location Lat="29.992039" Lon="-95.930639"/>
  <Runways>
   <Runway>17</Runway>
   <Runway>35</Runway>
  </Runways>
 </Airport>
 <Airport ID="38AZ" Name="BEDARD FIELD">
  <Location Lat="36.471736" Lon="-110.417903"/>
  <Runways>
   <Runway>02</Runway>
   <Runway>20</Runway>
  </Runways>
 </Airport>
 <Airport ID="38CA" Name="CASHEN AIRPORT">
  <Location Lat="35.691611" Lon="-119.488722"/>
  <Runways>
   <Runway>15</Runway>
   <Runway>33</Runway>
  </Runways>
 </Airport>
 <Airport ID="38WV" Name="RIVERS EDGE FARM AIRPORT">
  <Location Lat="39.325000" Lon="-78.425000"/>
  <Runways>
   <Runway>04</Runway>
   <Runway>22</Runway>
  </Runways>
 </Airport>
 <Airport ID="38XS" Name="SAN RAFAEL RANCH AIRPORT">
  <Location Lat="26.815214" Lon="-98.479306"/>
  <Runways>
   <Runway>14</Runway>
   <Runway>32</Runway>
  </Runways>
 </Airport>
 <Airport ID="3GA3" Name="WARREN AIRPORT">
  <Location Lat="34.871111" Lon="-85.437500"/>
  <Runways>
   <Runway>04</Runway>
   <Runway>22</Runway>
  </Runways>
 </Airport>
 <Airport ID="3MS9" Name="UNION MUN AIRPORT">
  <Location Lat="32.580695" Lon="-89.136169"/>
  <Runways>
   <Runway>10</Runway>
   <Runway>28</Runway>
  </Runways>
 </Airport>
 <Airport ID="3NJ1" Name="PEMBERTON AIRPORT">
  <Location Lat="39.982059" Lon="-74.692658"/>
  <Runways>
   <Runway>04</Runway>
   <Runway>22</Runway>
  </Runways>
 </Airport>
 <Airport ID="3NR3" Name="TRANSYLVANIA COUNTY AIRPORT">
  <Location Lat="35.270278" Lon="-82.644167"/>
  <Runways>
   <Runway>09</Runway>
   <Runway>27</Runway>
  </Runways>
 </Airport>
 <Airport ID="3PN7" Name="STAHLS MOUNTAIN AIRPORT">
  <Location Lat="41.747861" Lon="-75.497406"/>
  <Runways>
   <Runway>02</Runway>
   <Runway>20</Runway>
  </Runways>
 </Airport>
 <Airport ID="40AR" Name="LOST BRIDGE VILLAGE AIRPORT">
  <Location Lat="36.396572" Lon="-93.909786"/>
  <Runways>
   <Runway>13</Runway>
   <Runway>31</Runway>
  </Runways>
 </Airport>
 <Airport ID="46MI" Name="CLOUD NINE WEST AIRPORT">
  <Location Lat="42.546111" Lon="-84.127778"/>
  <Runways>
   <Runway>18</Runway>
   <Runway>36</Runway>
  </Runways>
 </Airport>
 <Airport ID="4AK6" Name="WOLF LAKE AIRPORT">
  <Location Lat="61.640970" Lon="-149.288750"/>
  <Runways>
   <Runway>06</Runway>
   <Runway>18</Runway>
   <Runway>24</Runway>
   <Runway>36</Runway>
  </Runways>
 </Airport>
 <Airport ID="4FL5" Name="RIDGE LANDING AIRPORT">
  <Location Lat="27.755278" Lon="-81.599722"/>
  <Runways>
   <Runway>15</Runway>
   <Runway>33</Runway>
  </Runways>
 </Airport>
 <Airport ID="4GA5" Name="PETERSON AIRPORT">
  <Location Lat="32.088661" Lon="-84.372511"/>
  <Runways>
   <Runway>18</Runway>
   <Runway>36</Runway>
  </Runways>
 </Airport>
 <Airport ID="4KS5" Name="MAIZE AIRPORT">
  <Location Lat="37.765567" Lon="-97.435878"/>
  <Runways>
   <Runway>17</Runway>
   <Runway>35</Runway>
  </Runways>
 </Airport>
 <Airport ID="4LA3" Name="JACKSON AIRPORT">
  <Location Lat="30.807778" Lon="-91.213333"/>
  <Runways>
   <Runway>15</Runway>
   <Runway>33</Runway>
  </Runways>
 </Airport>
 <Airport ID="4MO1" Name="MONTGOMERY-WEHRMAN AIRPORT">
  <Location Lat="39.012639" Lon="-91.419472"/>
  <Runways>
   <Runway>03</Runway>
   <Runway>21</Runway>
  </Runways>
 </Airport>
 <Airport ID="4WI7" Name="VINCENT AIRPORT">
  <Location Lat="42.518353" Lon="-88.299258"/>
  <Runways>
   <Runway>09</Runway>
   <Runway>27</Runway>
  </Runways>
 </Airport>
 <Airport ID="4WI9" Name="CORNELL MUN AIRPORT">
  <Location Lat="45.165522" Lon="-91.105697"/>
  <Runways>
   <Runway>09</Runway>
   <Runway>27</Runway>
  </Runways>
 </Airport>
 <Airport ID="51MO" Name="PLATTSBURG AIRPORT">
  <Location Lat="39.594583" Lon="-94.461417"/>
  <Runways>
   <Runway>18</Runway>
   <Runway>36</Runway>
  </Runways>
 </Airport>
 <Airport ID="59FD" Name="BIG CYPRESS AIRFIELD AIRPORT">
  <Location Lat="26.326208" Lon="-80.987967"/>
  <Runways>
   <Runway>10</Runway>
   <Runway>28</Runway>
  </Runways>
 </Airport>
 <Airport ID="5AZ3" Name="PEGASUS AIRPORT">
  <Location Lat="33.212500" Lon="-111.617222"/>
  <Runways>
   <Runway>08</Runway>
   <Runway>26</Runway>
  </Runways>
 </Airport>
 <Airport ID="5KY4" Name="STANDARD AIRPORT">
  <Location Lat="36.802778" Lon="-87.176389"/>
  <Runways>
   <Runway>13</Runway>
   <Runway>31</Runway>
  </Runways>
 </Airport>
 <Airport ID="5MD1" Name="BROOKLANDVILLE HELIP AIRPORT">
  <Location Lat="39.417686" Lon="-76.678997"/>
  <Runways>
   <Runway>08</Runway>
   <Runway>26</Runway>
  </Runways>
 </Airport>
 <Airport ID="5NC2" Name="SUGAR VALLEY AIRPORT">
  <Location Lat="35.984861" Lon="-80.511417"/>
  <Runways>
   <Runway>02</Runway>
   <Runway>20</Runway>
  </Runways>
 </Airport>
 <Airport ID="5NC3" Name="GILLIAM-MCCONNELL AIRPORT">
  <Location Lat="35.341667" Lon="-79.436945"/>
  <Runways>
   <Runway>13</Runway>
   <Runway>31</Runway>
  </Runways>
 </Airport>
 <Airport ID="5TE0" Name="COMANCHE RANCH AIRPORT">
  <Location Lat="28.627764" Lon="-100.161686"/>
  <Runways>
   <Runway>15</Runway>
   <Runway>33</Runway>
  </Runways>
 </Airport>
 <Airport ID="62AL" Name="SKYWEST AIRPARK AIRPORT">
  <Location Lat="30.683525" Lon="-88.371956"/>
  <Runways>
   <Runway>11</Runway>
   <Runway>29</Runway>
  </Runways>
 </Airport>
 <Airport ID="64OG" Name="ANTONE RANCH AIRPORT">
  <Location Lat="44.493436" Lon="-119.843686"/>
  <Runways>
   <Runway>07</Runway>
   <Runway>25</Runway>
  </Runways>
 </Airport>
 <Airport ID="65NK" Name="APEX AIRPORT">
  <Location Lat="42.729520" Lon="-74.164017"/>
  <Runways>
   <Runway>09</Runway>
   <Runway>27</Runway>
  </Runways>
 </Airport>
 <Airport ID="66TE" Name="THE LANDINGS AIRPORT">
  <Location Lat="32.365522" Lon="-97.645011"/>
  <Runways>
   <Runway>17</Runway>
   <Runway>35</Runway>
  </Runways>
 </Airport>
 <Airport ID="68IS" Name="CASA DE AERO PARK AIRPORT">
  <Location Lat="42.148600" Lon="-88.561947"/>
  <Runways>
   <Runway>09</Runway>
   <Runway>27</Runway>
  </Runways>
 </Airport>
 <Airport ID="68MI" Name="SALINE AIRPORT">
  <Location Lat="42.146389" Lon="-83.791945"/>
  <Runways>
   <Runway>03</Runway>
   <Runway>09</Runway>
   <Runway>21</Runway>
   <Runway>27</Runway>
  </Runways>
 </Airport>
 <Airport ID="6FL8" Name="AMES AIRPORT">
  <Location Lat="29.587556" Lon="-82.871250"/>
  <Runways>
   <Runway>18</Runway>
   <Runway>36</Runway>
  </Runways>
 </Airport>
 <Airport ID="6MN7" Name="SODBUSTER AIRPORT">
  <Location Lat="44.401042" Lon="-92.687600"/>
  <Runways>
   <Runway>18</Runway>
   <Runway>36</Runway>
  </Runways>
 </Airport>
 <Airport ID="6NC1" Name="LITTLE MOUNTAIN AIRPORT">
  <Location Lat="35.591800" Lon="-81.079522"/>
  <Runways>
   <Runway>03</Runway>
   <Runway>21</Runway>
  </Runways>
 </Airport>
 <Airport ID="6TE6" Name="6666 RANCH AIRPORT">
  <Location Lat="33.641492" Lon="-100.347508"/>
  <Runways>
   <Runway>01</Runway>
   <Runway>19</Runway>
  </Runways>
 </Airport>
 <Airport ID="6TE9" Name="MC KENZIE AIRPORT">
  <Location Lat="32.816803" Lon="-94.616870"/>
  <Runways>
   <Runway>09</Runway>
   <Runway>27</Runway>
  </Runways>
 </Airport>
 <Airport ID="72TE" Name="CHAPARROSA RANCH AIRPORT">
  <Location Lat="28.879072" Lon="-99.992475"/>
  <Runways>
   <Runway>15</Runway>
   <Runway>33</Runway>
  </Runways>
 </Airport>
 <Airport ID="74TE" Name="FLAT TOP RANCH AIRPORT">
  <Location Lat="32.061389" Lon="-97.794833"/>
  <Runways>
   <Runway>18</Runway>
   <Runway>36</Runway>
  </Runways>
 </Airport>
 <Airport ID="75OA" Name="DARBY DAN AIRPORT">
  <Location Lat="39.941959" Lon="-83.205278"/>
  <Runways>
   <Runway>09</Runway>
   <Runway>27</Runway>
  </Runways>
 </Airport>
 <Airport ID="76LS" Name="COOL CREEK AIRPORT">
  <Location Lat="30.956209" Lon="-90.546725"/>
  <Runways>
   <Runway>09</Runway>
   <Runway>27</Runway>
  </Runways>
 </Airport>
 <Airport ID="77NV" Name="FLYING EAGLE AIRPORT">
  <Location Lat="39.846667" Lon="-119.686667"/>
  <Runways>
   <Runway>07</Runway>
   <Runway>16</Runway>
   <Runway>25</Runway>
   <Runway>34</Runway>
  </Runways>
 </Airport>
 <Airport ID="79ID" Name="CLEAR CREEK INT AIRPORT">
  <Location Lat="46.048922" Lon="-115.869861"/>
  <Runways>
   <Runway>15</Runway>
   <Runway>33</Runway>
  </Runways>
 </Airport>
 <Airport ID="79VG" Name="PERKEY AIRPORT">
  <Location Lat="37.665278" Lon="-79.812417"/>
  <Runways>
   <Runway>07</Runway>
   <Runway>25</Runway>
  </Runways>
 </Airport>
 <Airport ID="7FL6" Name="SPRUCE CREEK AIRPORT">
  <Location Lat="29.080189" Lon="-81.046631"/>
  <Runways>
   <Runway>05</Runway>
   <Runway>23</Runway>
  </Runways>
 </Airport>
 <Airport ID="7GA7" Name="BERRY HILL AIRPORT">
  <Location Lat="33.535667" Lon="-84.179086"/>
  <Runways>
   <Runway>11</Runway>
   <Runway>29</Runway>
  </Runways>
 </Airport>
 <Airport ID="7KS9" Name="EAGLE FIELD">
  <Location Lat="37.848900" Lon="-97.510045"/>
  <Runways>
   <Runway>17</Runway>
   <Runway>35</Runway>
  </Runways>
 </Airport>
 <Airport ID="7MN4" Name="MILLE LACS LAKE AIRPORT">
  <Location Lat="46.319403" Lon="-93.830811"/>
  <Runways>
   <Runway>03</Runway>
   <Runway>09</Runway>
   <Runway>21</Runway>
   <Runway>27</Runway>
  </Runways>
 </Airport>
 <Airport ID="7TX0" Name="DANAHER AIRPORT">
  <Location Lat="33.828184" Lon="-98.572750"/>
  <Runways>
   <Runway>17</Runway>
   <Runway>35</Runway>
  </Runways>
 </Airport>
 <Airport ID="81XA" Name="RIVER FALLS AIRPORT">
  <Location Lat="35.080236" Lon="-101.756253"/>
  <Runways>
   <Runway>04</Runway>
   <Runway>17</Runway>
   <Runway>22</Runway>
   <Runway>35</Runway>
  </Runways>
 </Airport>
 <Airport ID="82IS" Name="LANDINGS AIRPORT">
  <Location Lat="42.143242" Lon="-88.403314"/>
  <Runways>
   <Runway>13</Runway>
   <Runway>31</Runway>
  </Runways>
 </Airport>
 <Airport ID="82MI" Name="RANDOLPHS LANDING AR AIRPORT">
  <Location Lat="43.112531" Lon="-84.520822"/>
  <Runways>
   <Runway>05</Runway>
   <Runway>23</Runway>
  </Runways>
 </Airport>
 <Airport ID="82TS" Name="ELMDALE AIRPORT">
  <Location Lat="32.450125" Lon="-99.650364"/>
  <Runways>
   <Runway>17</Runway>
   <Runway>18</Runway>
   <Runway>35</Runway>
   <Runway>36</Runway>
  </Runways>
 </Airport>
 <Airport ID="84KS" Name="ST MARYS AIRPORT">
  <Location Lat="39.272500" Lon="-96.061389"/>
  <Runways>
   <Runway>18</Runway>
   <Runway>36</Runway>
  </Runways>
 </Airport>
 <Airport ID="85NK" Name="CAMPBELL AIRPORT">
  <Location Lat="42.154228" Lon="-79.016431"/>
  <Runways>
   <Runway>08</Runway>
   <Runway>26</Runway>
  </Runways>
 </Airport>
 <Airport ID="86KS" Name="COBERLY AIRPORT">
  <Location Lat="38.786889" Lon="-100.419845"/>
  <Runways>
   <Runway>18</Runway>
   <Runway>36</Runway>
  </Runways>
 </Airport>
 <Airport ID="89GE" Name="SOUTH FULTON AIRPORT">
  <Location Lat="33.537611" Lon="-84.638820"/>
  <Runways>
   <Runway>09</Runway>
   <Runway>27</Runway>
  </Runways>
 </Airport>
 <Airport ID="89NY" Name="MAXSON AIRFIELD AIRPORT">
  <Location Lat="44.316717" Lon="-75.899672"/>
  <Runways>
   <Runway>06</Runway>
   <Runway>24</Runway>
  </Runways>
 </Airport>
 <Airport ID="89TE" Name="LAJITAS INTERNATIONAL AIRPORT">
  <Location Lat="29.277917" Lon="-103.687639"/>
  <Runways>
   <Runway>07</Runway>
   <Runway>25</Runway>
  </Runways>
 </Airport>
 <Airport ID="89TS" Name="CARTER RANCH AIRPORT">
  <Location Lat="31.566872" Lon="-95.766672"/>
  <Runways>
   <Runway>18</Runway>
   <Runway>36</Runway>
  </Runways>
 </Airport>
 <Airport ID="8CL1" Name="LAKE WOHLFORD RESORT AIRPORT">
  <Location Lat="33.186150" Lon="-117.001975"/>
  <Runways>
   <Runway>03</Runway>
   <Runway>21</Runway>
  </Runways>
 </Airport>
 <Airport ID="8GA9" Name="BROOKBRIDGE AIRPORT">
  <Location Lat="33.273333" Lon="-84.411667"/>
  <Runways>
   <Runway>02</Runway>
   <Runway>20</Runway>
  </Runways>
 </Airport>
 <Airport ID="8MN3" Name="BREEZY POINT AIRPORT">
  <Location Lat="46.595833" Lon="-94.220000"/>
  <Runways>
   <Runway>17</Runway>
   <Runway>35</Runway>
  </Runways>
 </Airport>
 <Airport ID="90NY" Name="HOPEWELL AIRPORT">
  <Location Lat="42.919509" Lon="-77.242778"/>
  <Runways>
   <Runway>01</Runway>
   <Runway>07</Runway>
   <Runway>19</Runway>
   <Runway>25</Runway>
  </Runways>
 </Airport>
 <Airport ID="95WI" Name="WISERSKY AIRPORT">
  <Location Lat="42.936111" Lon="-89.129722"/>
  <Runways>
   <Runway>18</Runway>
   <Runway>36</Runway>
  </Runways>
 </Airport>
 <Airport ID="9IS0" Name="CEDAR RIDGE AIRPORT">
  <Location Lat="40.543097" Lon="-91.330706"/>
  <Runways>
   <Runway>09</Runway>
   <Runway>27</Runway>
  </Runways>
 </Airport>
 <Airport ID="9IS2" Name="SCHERTZ AIRPORT">
  <Location Lat="40.482167" Lon="-88.267556"/>
  <Runways>
   <Runway>09</Runway>
   <Runway>18</Runway>
   <Runway>27</Runway>
   <Runway>36</Runway>
  </Runways>
 </Airport>
 <Airport ID="9KY9" Name="PAINTSVILLE-PRESTONS AIRPORT">
  <Location Lat="37.745931" Lon="-82.779050"/>
  <Runways>
   <Runway>13</Runway>
   <Runway>31</Runway>
  </Runways>
 </Airport>
 <Airport ID="9TE2" Name="JL BAR RANCH AIRPORT">
  <Location Lat="30.568367" Lon="-100.444192"/>
  <Runways>
   <Runway>14</Runway>
   <Runway>32</Runway>
  </Runways>
 </Airport>
 <Airport ID="AGAT" Name="ATOIFI AIRPORT">
  <Location Lat="-8.873334" Lon="161.011500"/>
  <Runways>
   <Runway>13</Runway>
   <Runway>31</Runway>
  </Runways>
 </Airport>
 <Airport ID="AGGA" Name="AUKI AIRPORT">
  <Location Lat="-8.702686" Lon="160.681697"/>
  <Runways>
   <Runway>18</Runway>
   <Runway>36</Runway>
  </Runways>
 </Airport>
 <Airport ID="AGGB" Name="BELLONA AIRPORT">
  <Location Lat="-11.295000" Lon="159.796667"/>
  <Runways>
   <Runway>11</Runway>
   <Runway>29</Runway>
  </Runways>
 </Airport>
 <Airport ID="AGGC" Name="CHOISEUL AIRPORT">
  <Location Lat="-6.712033" Lon="156.396195"/>
  <Runways>
   <Runway>13</Runway>
   <Runway>31</Runway>
  </Runways>
 </Airport>
 <Airport ID="AGGE" Name="BALLALAE AIRPORT">
  <Location Lat="-6.983334" Lon="155.885000"/>
  <Runways>
   <Runway>04</Runway>
   <Runway>22</Runway>
  </Runways>
 </Airport>
 <Airport ID="AGGF" Name="MARINGE AIRPORT">
  <Location Lat="-8.107461" Lon="159.577114"/>
  <Runways>
   <Runway>18</Runway>
   <Runway>36</Runway>
  </Runways>
 </Airport>
 <Airport ID="AGGH" Name="HONIARA INTERNATIONAL /HENDER AIRPORT">
  <Location Lat="-9.421667" Lon="160.051667"/>
  <Runways>
   <Runway>06</Runway>
   <Runway>24</Runway>
  </Runways>
 </Airport>
 <Airport ID="AGGI" Name="BABANAKIRA AIRPORT">
  <Location Lat="-9.747761" Lon="159.839661"/>
  <Runways>
   <Runway>17</Runway>
   <Runway>35</Runway>
  </Runways>
 </Airport>
 <Airport ID="AGGJ" Name="AVU AVU AIRPORT">
  <Location Lat="-9.868178" Lon="160.410392"/>
  <Runways>
   <Runway>14</Runway>
   <Runway>32</Runway>
  </Runways>
 </Airport>
 <Airport ID="AGGK" Name="KIRAKIRA AIRPORT">
  <Location Lat="-10.441667" Lon="161.896667"/>
  <Runways>
   <Runway>10</Runway>
   <Runway>28</Runway>
  </Runways>
 </Airport>
 <Airport ID="AGGL" Name="SANTA CRUZ/GRACIOSA AIRPORT">
  <Location Lat="-10.713333" Lon="165.793333"/>
  <Runways>
   <Runway>05</Runway>
   <Runway>23</Runway>
  </Runways>
 </Airport>
 <Airport ID="AGGM" Name="MUNDA AIRPORT">
  <Location Lat="-8.320000" Lon="157.261667"/>
  <Runways>
   <Runway>07</Runway>
   <Runway>25</Runway>
  </Runways>
 </Airport>
 <Airport ID="AGGN" Name="GIZO AIRPORT">
  <Location Lat="-8.091667" Lon="156.863334"/>
  <Runways>
   <Runway>14</Runway>
   <Runway>32</Runway>
  </Runways>
 </Airport>
 <Airport ID="AGGO" Name="MONO/STIRLING ISLAND AIRPORT">
  <Location Lat="-7.415000" Lon="155.566667"/>
  <Runways>
   <Runway>04</Runway>
   <Runway>22</Runway>
  </Runways>
 </Airport>
 <Airport ID="AGGP" Name="PARASI AIRPORT">
  <Location Lat="-9.643611" Lon="161.428222"/>
  <Runways>
   <Runway>12</Runway>
   <Runway>30</Runway>
  </Runways>
 </Airport>
 <Airport ID="AGGQ" Name="ONTONG JAVA AIRPORT">
  <Location Lat="-5.506667" Lon="159.526667"/>
  <Runways>
   <Runway>09</Runway>
   <Runway>27</Runway>
  </Runways>
 </Airport>
 <Airport ID="AGGR" Name="RENNELL/TINGOA AIRPORT">
  <Location Lat="-11.560000" Lon="160.061667"/>
  <Runways>
   <Runway>12</Runway>
   <Runway>30</Runway>
  </Runways>
 </Airport>
 <Airport ID="AGGS" Name="SEGHE AIRPORT">
  <Location Lat="-8.578475" Lon="157.875670"/>
  <Runways>
   <Runway>10</Runway>
   <Runway>28</Runway>
  </Runways>
 </Airport>
 <Airport ID="AGGT" Name="SANTA ANNA AIRPORT">
  <Location Lat="-10.848347" Lon="162.454556"/>
  <Runways>
   <Runway>11</Runway>
   <Runway>29</Runway>
  </Runways>
 </Airport>
 <Airport ID="AGGU" Name="MARAU/PARURU AIRPORT">
  <Location Lat="-9.864250" Lon="160.822567"/>
  <Runways>
   <Runway>05</Runway>
   <Runway>23</Runway>
  </Runways>
 </Airport>
 <Airport ID="AGGV" Name="SUAVANAO AIRPORT">
  <Location Lat="-7.583333" Lon="158.733333"/>
  <Runways>
   <Runway>04</Runway>
   <Runway>22</Runway>
  </Runways>
 </Airport>
 <Airport ID="AGGY" Name="YANDINA/RUSSELL ISLA AIRPORT">
  <Location Lat="-9.093833" Lon="159.218333"/>
  <Runways>
   <Runway>12</Runway>
   <Runway>30</Runway>
  </Runways>
 </Airport>
 <Airport ID="AGKG" Name="KAGHAU AIRPORT">
  <Location Lat="-7.331667" Lon="157.586667"/>
  <Runways>
   <Runway>14</Runway>
   <Runway>32</Runway>
  </Runways>
 </Airport>
 <Airport ID="AGRC" Name="RINGICOVE AIRPORT">
  <Location Lat="-8.118333" Lon="157.141667"/>
  <Runways>
   <Runway>01</Runway>
   <Runway>19</Runway>
  </Runways>
 </Airport>
 <Airport ID="AK33" Name="HERENDEEN BAY AIRPORT">
  <Location Lat="55.802222" Lon="-160.897222"/>
  <Runways>
   <Runway>07</Runway>
   <Runway>12</Runway>
   <Runway>25</Runway>
   <Runway>30</Runway>
  </Runways>
 </Airport>
 <Airport ID="AK71" Name="LONELY AS AIRPORT">
  <Location Lat="70.910745" Lon="-153.242214"/>
  <Runways>
   <Runway>07</Runway>
   <Runway>25</Runway>
  </Runways>
 </Airport>
 <Airport ID="AK75" Name="CANDLE NO 2 AIRPORT">
  <Location Lat="65.907659" Lon="-161.926306"/>
  <Runways>
   <Runway>02</Runway>
   <Runway>20</Runway>
  </Runways>
 </Airport>
 <Airport ID="AL05" Name="SEHOY AIRPORT">
  <Location Lat="32.221336" Lon="-85.471783"/>
  <Runways>
   <Runway>04</Runway>
   <Runway>22</Runway>
  </Runways>
 </Airport>
 <Airport ID="AL44" Name="MOUNDVILLE AIRPORT">
  <Location Lat="32.968181" Lon="-87.640564"/>
  <Runways>
   <Runway>09</Runway>
   <Runway>18</Runway>
   <Runway>27</Runway>
   <Runway>36</Runway>
  </Runways>
 </Airport>
 <Airport ID="ANYN" Name="NAURU INTERNATIONAL AIRPORT">
  <Location Lat="-0.546667" Lon="166.916667"/>
  <Runways>
   <Runway>12</Runway>
   <Runway>30</Runway>
  </Runways>
 </Airport>
 <Airport ID="AYAO" Name="AIOME AIRPORT">
  <Location Lat="-5.145700" Lon="144.730700"/>
  <Runways>
   <Runway>01</Runway>
   <Runway>19</Runway>
  </Runways>
 </Airport>
 <Airport ID="AYBK" Name="BUKA AIRPORT">
  <Location Lat="-5.422245" Lon="154.672775"/>
  <Runways>
   <Runway>04</Runway>
   <Runway>22</Runway>
  </Runways>
 </Airport>
 <Airport ID="AYBL" Name="BIALLA AIRPORT">
  <Location Lat="-5.327900" Lon="151.004333"/>
  <Runways>
   <Runway>11</Runway>
   <Runway>29</Runway>
  </Runways>
 </Airport>
 <Airport ID="AYBM" Name="BALIMO AIRPORT">
  <Location Lat="-8.052150" Lon="142.940584"/>
  <Runways>
   <Runway>10</Runway>
   <Runway>28</Runway>
  </Runways>
 </Airport>
 <Airport ID="AYBU" Name="BULOLO AIRPORT">
  <Location Lat="-7.221183" Lon="146.651250"/>
  <Runways>
   <Runway>15</Runway>
   <Runway>33</Runway>
  </Runways>
 </Airport>
 <Airport ID="AYCG" Name="CAPE GLOUCESTER AIRPORT">
  <Location Lat="-5.450000" Lon="148.441667"/>
  <Runways>
   <Runway>08</Runway>
   <Runway>26</Runway>
  </Runways>
 </Airport>
 <Airport ID="AYCH" Name="CHIMBU AIRPORT">
  <Location Lat="-6.024000" Lon="144.970650"/>
  <Runways>
   <Runway>03</Runway>
   <Runway>21</Runway>
  </Runways>
 </Airport>
 <Airport ID="AYDU" Name="DARU AIRPORT">
  <Location Lat="-9.086906" Lon="143.207881"/>
  <Runways>
   <Runway>14</Runway>
   <Runway>32</Runway>
  </Runways>
 </Airport>
 <Airport ID="AYEE" Name="EMIRAU AIRPORT">
  <Location Lat="-1.653950" Lon="149.975767"/>
  <Runways>
   <Runway>12</Runway>
   <Runway>30</Runway>
  </Runways>
 </Airport>
 <Airport ID="AYEH" Name="MOREHEAD AIRPORT">
  <Location Lat="-8.715367" Lon="141.648850"/>
  <Runways>
   <Runway>09</Runway>
   <Runway>27</Runway>
  </Runways>
 </Airport>
 <Airport ID="AYEV" Name="ERAVE AIRPORT">
  <Location Lat="-6.608333" Lon="143.900000"/>
  <Runways>
   <Runway>11</Runway>
   <Runway>29</Runway>
  </Runways>
 </Airport>
 <Airport ID="AYFI" Name="FINSCHHAFEN AIRPORT">
  <Location Lat="-6.621750" Lon="147.854050"/>
  <Runways>
   <Runway>16</Runway>
   <Runway>34</Runway>
  </Runways>
 </Airport>
 <Airport ID="AYGA" Name="GOROKA AIRPORT">
  <Location Lat="-6.082778" Lon="145.390556"/>
  <Runways>
   <Runway>17L</Runway>
   <Runway>17R</Runway>
   <Runway>35L</Runway>
   <Runway>35R</Runway>
  </Runways>
 </Airport>
 <Airport ID="AYGB" Name="GOBE AIRPORT">
  <Location Lat="-6.877828" Lon="143.721872"/>
  <Runways>
   <Runway>14</Runway>
   <Runway>32</Runway>
  </Runways>
 </Airport>
 <Airport ID="AYGI" Name="GARAINA AIRPORT">
  <Location Lat="-7.881384" Lon="147.147033"/>
  <Runways>
   <Runway>13</Runway>
   <Runway>31</Runway>
  </Runways>
 </Airport>
 <Airport ID="AYGJ" Name="GUASOPA AIRPORT">
  <Location Lat="-9.224833" Lon="152.943800"/>
  <Runways>
   <Runway>12</Runway>
   <Runway>30</Runway>
  </Runways>
 </Airport>
 <Airport ID="AYGL" Name="GONALI AIRPORT">
  <Location Lat="-5.527717" Lon="151.573333"/>
  <Runways>
   <Runway>12</Runway>
   <Runway>30</Runway>
  </Runways>
 </Airport>
 <Airport ID="AYGN" Name="GURNEY AIRPORT">
  <Location Lat="-10.310425" Lon="150.334111"/>
  <Runways>
   <Runway>09</Runway>
   <Runway>27</Runway>
  </Runways>
 </Airport>
 <Airport ID="AYGP" Name="GUSAP AIRPORT">
  <Location Lat="-6.058117" Lon="145.964050"/>
  <Runways>
   <Runway>14</Runway>
   <Runway>32</Runway>
  </Runways>
 </Airport>
 <Airport ID="AYGR" Name="GIRUA AIRPORT">
  <Location Lat="-8.804495" Lon="148.308972"/>
  <Runways>
   <Runway>03</Runway>
   <Runway>21</Runway>
  </Runways>
 </Airport>
 <Airport ID="AYGV" Name="GREEN RIVER AIRPORT">
  <Location Lat="-3.900467" Lon="141.177767"/>
  <Runways>
   <Runway>07</Runway>
   <Runway>25</Runway>
  </Runways>
 </Airport>
 <Airport ID="AYHF" Name="HAYFIELD AIRPORT">
  <Location Lat="-3.701700" Lon="143.057933"/>
  <Runways>
   <Runway>17</Runway>
   <Runway>35</Runway>
  </Runways>
 </Airport>
 <Airport ID="AYHK" Name="HOSKINS AIRPORT">
  <Location Lat="-5.461667" Lon="150.402222"/>
  <Runways>
   <Runway>12</Runway>
   <Runway>30</Runway>
  </Runways>
 </Airport>
 <Airport ID="AYIA" Name="NISSAN AIRPORT">
  <Location Lat="-4.496333" Lon="154.224950"/>
  <Runways>
   <Runway>14</Runway>
   <Runway>32</Runway>
  </Runways>
 </Airport>
 <Airport ID="AYIX" Name="WITU AIRPORT">
  <Location Lat="-4.687667" Lon="149.435933"/>
  <Runways>
   <Runway>10</Runway>
   <Runway>28</Runway>
  </Runways>
 </Airport>
 <Airport ID="AYJB" Name="JACQUINOT BAY AIRPORT">
  <Location Lat="-5.656500" Lon="151.507517"/>
  <Runways>
   <Runway>16</Runway>
   <Runway>34</Runway>
  </Runways>
 </Airport>
 <Airport ID="AYJS" Name="JOSEPHSTALL AIRPORT">
  <Location Lat="-4.749400" Lon="145.005283"/>
  <Runways>
   <Runway>03</Runway>
   <Runway>21</Runway>
  </Runways>
 </Airport>
 <Airport ID="AYKA" Name="KIRIWINA AIRPORT">
  <Location Lat="-8.506283" Lon="151.080933"/>
  <Runways>
   <Runway>14</Runway>
   <Runway>32</Runway>
  </Runways>
 </Airport>
 <Airport ID="AYKC" Name="KANDRIAN AIRPORT">
  <Location Lat="-6.198633" Lon="149.548333"/>
  <Runways>
   <Runway>17</Runway>
   <Runway>35</Runway>
  </Runways>
 </Airport>
 <Airport ID="AYKI" Name="KIUNGA AIRPORT">
  <Location Lat="-6.125197" Lon="141.282386"/>
  <Runways>
   <Runway>07</Runway>
   <Runway>25</Runway>
  </Runways>
 </Airport>
 <Airport ID="AYKK" Name="KIKORI AIRPORT">
  <Location Lat="-7.424656" Lon="144.250064"/>
  <Runways>
   <Runway>12</Runway>
   <Runway>30</Runway>
  </Runways>
 </Airport>
 <Airport ID="AYKM" Name="KEREMA AIRPORT">
  <Location Lat="-7.963650" Lon="145.771350"/>
  <Runways>
   <Runway>14</Runway>
   <Runway>32</Runway>
  </Runways>
 </Airport>
 <Airport ID="AYKO" Name="KOKODA AIRPORT">
  <Location Lat="-8.888084" Lon="147.730533"/>
  <Runways>
   <Runway>17</Runway>
   <Runway>35</Runway>
  </Runways>
 </Airport>
 <Airport ID="AYKV" Name="KAVIENG AIRPORT">
  <Location Lat="-2.578983" Lon="150.807428"/>
  <Runways>
   <Runway>12</Runway>
   <Runway>30</Runway>
  </Runways>
 </Airport>
 <Airport ID="AYKW" Name="KAWITO AIRPORT">
  <Location Lat="-7.980484" Lon="142.823900"/>
  <Runways>
   <Runway>15</Runway>
   <Runway>33</Runway>
  </Runways>
 </Airport>
 <Airport ID="AYKY" Name="KUNAYE AIRPORT">
  <Location Lat="-3.043817" Lon="152.629283"/>
  <Runways>
   <Runway>12</Runway>
   <Runway>30</Runway>
  </Runways>
 </Airport>
 <Airport ID="AYMC" Name="MENYAMYA AIRPORT">
  <Location Lat="-7.216483" Lon="146.019850"/>
  <Runways>
   <Runway>15</Runway>
   <Runway>33</Runway>
  </Runways>
 </Airport>
 <Airport ID="AYMD" Name="MADANG AIRPORT">
  <Location Lat="-5.209167" Lon="145.787500"/>
  <Runways>
   <Runway>07</Runway>
   <Runway>25</Runway>
  </Runways>
 </Airport>
 <Airport ID="AYMH" Name="MOUNT HAGEN AIRPORT">
  <Location Lat="-5.828917" Lon="144.300533"/>
  <Runways>
   <Runway>08</Runway>
   <Runway>12</Runway>
   <Runway>26</Runway>
   <Runway>30</Runway>
  </Runways>
 </Airport>
 <Airport ID="AYMN" Name="MENDI AIRPORT">
  <Location Lat="-6.148222" Lon="143.657161"/>
  <Runways>
   <Runway>17</Runway>
   <Runway>35</Runway>
  </Runways>
 </Airport>
 <Airport ID="AYMO" Name="MOMOTE AIRPORT">
  <Location Lat="-2.064167" Lon="147.423889"/>
  <Runways>
   <Runway>16</Runway>
   <Runway>34</Runway>
  </Runways>
 </Airport>
 <Airport ID="AYMR" Name="MORO AIRPORT">
  <Location Lat="-6.363128" Lon="143.238317"/>
  <Runways>
   <Runway>09</Runway>
   <Runway>27</Runway>
  </Runways>
 </Airport>
 <Airport ID="AYMS" Name="MISIMA AIRPORT">
  <Location Lat="-10.689058" Lon="152.837559"/>
  <Runways>
   <Runway>08</Runway>
   <Runway>26</Runway>
  </Runways>
 </Airport>
 <Airport ID="AYMV" Name="MALEKOLON AIRPORT">
  <Location Lat="-4.022417" Lon="153.656617"/>
  <Runways>
   <Runway>14</Runway>
   <Runway>32</Runway>
  </Runways>
 </Airport>
 <Airport ID="AYNN" Name="KANDEP AIRPORT">
  <Location Lat="-5.840950" Lon="143.511533"/>
  <Runways>
   <Runway>09</Runway>
   <Runway>27</Runway>
  </Runways>
 </Airport>
 <Airport ID="AYNR" Name="NOMAD RIVER AIRPORT">
  <Location Lat="-6.293083" Lon="142.237250"/>
  <Runways>
   <Runway>06</Runway>
   <Runway>24</Runway>
  </Runways>
 </Airport>
 <Airport ID="AYNX" Name="NAMATANAI AIRPORT">
  <Location Lat="-3.672767" Lon="152.440583"/>
  <Runways>
   <Runway>12</Runway>
   <Runway>30</Runway>
  </Runways>
 </Airport>
 <Airport ID="AYNZ" Name="NADZAB AIRPORT">
  <Location Lat="-6.567222" Lon="146.724722"/>
  <Runways>
   <Runway>09</Runway>
   <Runway>27</Runway>
  </Runways>
 </Airport>
 <Airport ID="AYOY" Name="OPEN BAY AIRPORT">
  <Location Lat="-4.798733" Lon="151.694317"/>
  <Runways>
   <Runway>01</Runway>
   <Runway>19</Runway>
  </Runways>
 </Airport>
 <Airport ID="AYPY" Name="JACKSONS AIRPORT">
  <Location Lat="-9.443889" Lon="147.215833"/>
  <Runways>
   <Runway>14L</Runway>
   <Runway>14R</Runway>
   <Runway>32L</Runway>
   <Runway>32R</Runway>
  </Runways>
 </Airport>
 <Airport ID="AYRI" Name="KARIMUI AIRPORT">
  <Location Lat="-6.494700" Lon="144.826734"/>
  <Runways>
   <Runway>12</Runway>
   <Runway>30</Runway>
  </Runways>
 </Airport>
 <Airport ID="AYRK" Name="KAIRUKU AIRPORT">
  <Location Lat="-8.817000" Lon="146.524383"/>
  <Runways>
   <Runway>15</Runway>
   <Runway>33</Runway>
  </Runways>
 </Airport>
 <Airport ID="AYSD" Name="SAIDOR AIRPORT">
  <Location Lat="-5.624067" Lon="146.459150"/>
  <Runways>
   <Runway>12</Runway>
   <Runway>30</Runway>
  </Runways>
 </Airport>
 <Airport ID="AYSE" Name="SIMBERI AIRPORT">
  <Location Lat="-2.662500" Lon="151.998334"/>
  <Runways>
   <Runway>10</Runway>
   <Runway>28</Runway>
  </Runways>
 </Airport>
 <Airport ID="AYSF" Name="SAFIA AIRPORT">
  <Location Lat="-9.594967" Lon="148.638917"/>
  <Runways>
   <Runway>11</Runway>
   <Runway>29</Runway>
  </Runways>
 </Airport>
 <Airport ID="AYSL" Name="SEHULEA AIRPORT">
  <Location Lat="-9.961050" Lon="151.162133"/>
  <Runways>
   <Runway>18</Runway>
   <Runway>36</Runway>
  </Runways>
 </Airport>
 <Airport ID="AYTA" Name="TARI AIRPORT">
  <Location Lat="-5.844822" Lon="142.947436"/>
  <Runways>
   <Runway>14</Runway>
   <Runway>32</Runway>
  </Runways>
 </Airport>
 <Airport ID="AYTB" Name="TABUBIL AIRPORT">
  <Location Lat="-5.279839" Lon="141.227094"/>
  <Runways>
   <Runway>14</Runway>
   <Runway>32</Runway>
  </Runways>
 </Airport>
 <Airport ID="AYTE" Name="TELEFOMIN AIRPORT">
  <Location Lat="-5.129283" Lon="141.637367"/>
  <Runways>
   <Runway>04</Runway>
   <Runway>22</Runway>
  </Runways>
 </Airport>
 <Airport ID="AYTI" Name="TAPINI AIRPORT">
  <Location Lat="-8.358167" Lon="146.993834"/>
  <Runways>
   <Runway>09</Runway>
   <Runway>27</Runway>
  </Runways>
 </Airport>
 <Airport ID="AYTJ" Name="TADJI AIRPORT">
  <Location Lat="-3.195600" Lon="142.424817"/>
  <Runways>
   <Runway>10</Runway>
   <Runway>28</Runway>
  </Runways>
 </Airport>
 <Airport ID="AYTK" Name="TOKUA AIRPORT">
  <Location Lat="-4.340422" Lon="152.379686"/>
  <Runways>
   <Runway>10</Runway>
   <Runway>28</Runway>
  </Runways>
 </Airport>
 <Airport ID="AYVN" Name="VANIMO AIRPORT">
  <Location Lat="-2.697117" Lon="141.302283"/>
  <Runways>
   <Runway>12</Runway>
   <Runway>30</Runway>
  </Runways>
 </Airport>
 <Airport ID="AYWD" Name="WAPENAMANDA AIRPORT">
  <Location Lat="-5.635317" Lon="143.892317"/>
  <Runways>
   <Runway>14</Runway>
   <Runway>32</Runway>
  </Runways>
 </Airport>
 <Airport ID="AYWG" Name="WANIGELA AIRPORT">
  <Location Lat="-9.336800" Lon="149.152450"/>
  <Runways>
   <Runway>08</Runway>
   <Runway>26</Runway>
  </Runways>
 </Airport>
 <Airport ID="AYWK" Name="BORAM AIRPORT">
  <Location Lat="-3.583792" Lon="143.669175"/>
  <Runways>
   <Runway>10</Runway>
   <Runway>28</Runway>
  </Runways>
 </Airport>
 <Airport ID="AYWQ" Name="WAKUNAI AIRPORT">
  <Location Lat="-5.875000" Lon="155.233333"/>
  <Runways>
   <Runway>05</Runway>
   <Runway>23</Runway>
  </Runways>
 </Airport>
 <Airport ID="AYWT" Name="WOITAPE AIRPORT">
  <Location Lat="-8.549883" Lon="147.255517"/>
  <Runways>
   <Runway>15</Runway>
   <Runway>33</Runway>
  </Runways>
 </Airport>
 <Airport ID="AYXM" Name="KOMO AIRPORT">
  <Location Lat="-6.063375" Lon="142.876806"/>
  <Runways>
   <Runway>16</Runway>
   <Runway>34</Runway>
  </Runways>
 </Airport>
 <Airport ID="BGAA" Name="AASIAAT AIRPORT">
  <Location Lat="68.721847" Lon="-52.784747"/>
  <Runways>
   <Runway>11</Runway>
   <Runway>29</Runway>
  </Runways>
 </Airport>
 <Airport ID="BGBW" Name="NARSARSUAQ AIRPORT">
  <Location Lat="61.160719" Lon="-45.425675"/>
  <Runways>
   <Runway>07</Runway>
   <Runway>25</Runway>
  </Runways>
 </Airport>
 <Airport ID="BGCO" Name="NERLERIT INAAT AIRPORT">
  <Location Lat="70.743083" Lon="-22.650556"/>
  <Runways>
   <Runway>18</Runway>
   <Runway>36</Runway>
  </Runways>
 </Airport>
 <Airport ID="BGGH" Name="NUUK AIRPORT">
  <Location Lat="64.190922" Lon="-51.678064"/>
  <Runways>
   <Runway>05</Runway>
   <Runway>23</Runway>
  </Runways>
 </Airport>
 <Airport ID="BGJN" Name="ILULISSAT AIRPORT">
  <Location Lat="69.243217" Lon="-51.057111"/>
  <Runways>
   <Runway>07</Runway>
   <Runway>25</Runway>
  </Runways>
 </Airport>
 <Airport ID="BGKK" Name="KULUSUK AIRPORT">
  <Location Lat="65.573611" Lon="-37.123611"/>
  <Runways>
   <Runway>11</Runway>
   <Runway>29</Runway>
  </Runways>
 </Airport>
 <Airport ID="BGMQ" Name="MANIITSOQ AIRPORT">
  <Location Lat="65.412464" Lon="-52.939420"/>
  <Runways>
   <Runway>16</Runway>
   <Runway>34</Runway>
  </Runways>
 </Airport>
 <Airport ID="BGMV" Name="MESTERSVIG AIRPORT">
  <Location Lat="72.233333" Lon="-23.916667"/>
  <Runways>
   <Runway>14</Runway>
   <Runway>32</Runway>
  </Runways>
 </Airport>
 <Airport ID="BGNO" Name="STATION NORD AIRPORT">
  <Location Lat="81.609000" Lon="-16.677167"/>
  <Runways>
   <Runway>03</Runway>
   <Runway>21</Runway>
  </Runways>
 </Airport>
 <Airport ID="BGPT" Name="PAAMIUT AIRPORT">
  <Location Lat="62.014736" Lon="-49.670936"/>
  <Runways>
   <Runway>17</Runway>
   <Runway>35</Runway>
  </Runways>
 </Airport>
 <Airport ID="BGQQ" Name="QAANAAQ AIRPORT">
  <Location Lat="77.488650" Lon="-69.388731"/>
  <Runways>
   <Runway>18</Runway>
   <Runway>36</Runway>
  </Runways>
 </Airport>
 <Airport ID="BGSF" Name="KANGERLUSSUAQ AIRPORT">
  <Location Lat="67.016969" Lon="-50.689325"/>
  <Runways>
   <Runway>09</Runway>
   <Runway>27</Runway>
  </Runways>
 </Airport>
 <Airport ID="BGSS" Name="SISIMIUT AIRPORT">
  <Location Lat="66.951289" Lon="-53.729320"/>
  <Runways>
   <Runway>14</Runway>
   <Runway>32</Runway>
  </Runways>
 </Airport>
 <Airport ID="BGTL" Name="THULE AB AIRPORT">
  <Location Lat="76.531203" Lon="-68.703161"/>
  <Runways>
   <Runway>08</Runway>
   <Runway>26</Runway>
  </Runways>
 </Airport>
 <Airport ID="BGUK" Name="UPERNAVIK AIRPORT">
  <Location Lat="72.790189" Lon="-56.130586"/>
  <Runways>
   <Runway>05</Runway>
   <Runway>23</Runway>
  </Runways>
 </Airport>
 <Airport ID="BGUQ" Name="QAARSUT AIRPORT">
  <Location Lat="70.734231" Lon="-52.696203"/>
  <Runways>
   <Runway>16</Runway>
   <Runway>34</Runway>
  </Runways>
 </Airport>
 <Airport ID="BIAR" Name="AKUREYRI AIRPORT">
  <Location Lat="65.658611" Lon="-18.072222"/>
  <Runways>
   <Runway>01</Runway>
   <Runway>19</Runway>
  </Runways>
 </Airport>
 <Airport ID="BIBA" Name="BAKKI AIRPORT">
  <Location Lat="63.556111" Lon="-20.137500"/>
  <Runways>
   <Runway>03</Runway>
   <Runway>12</Runway>
   <Runway>21</Runway>
   <Runway>30</Runway>
  </Runways>
 </Airport>
 <Airport ID="BIBD" Name="BILDUDALUR AIRPORT">
  <Location Lat="65.641389" Lon="-23.546111"/>
  <Runways>
   <Runway>05</Runway>
   <Runway>23</Runway>
  </Runways>
 </Airport>
 <Airport ID="BIBL" Name="BLONDUOS AIRPORT">
  <Location Lat="65.645000" Lon="-20.287500"/>
  <Runways>
   <Runway>04</Runway>
   <Runway>22</Runway>
  </Runways>
 </Airport>
 <Airport ID="BIBV" Name="BREIDDALSVIK AIRPORT">
  <Location Lat="64.790000" Lon="-14.022778"/>
  <Runways>
   <Runway>13</Runway>
   <Runway>31</Runway>
  </Runways>
 </Airport>
 <Airport ID="BIDV" Name="DJUPIVOGUR AIRPORT">
  <Location Lat="64.644167" Lon="-14.282778"/>
  <Runways>
   <Runway>18</Runway>
   <Runway>36</Runway>
  </Runways>
 </Airport>
 <Airport ID="BIEG" Name="EGILSSTADIR AIRPORT">
  <Location Lat="65.283333" Lon="-14.401389"/>
  <Runways>
   <Runway>04</Runway>
   <Runway>22</Runway>
  </Runways>
 </Airport>
 <Airport ID="BIGJ" Name="GJOGUR AIRPORT">
  <Location Lat="65.995278" Lon="-21.326945"/>
  <Runways>
   <Runway>05</Runway>
   <Runway>23</Runway>
  </Runways>
 </Airport>
 <Airport ID="BIGR" Name="GRIMSEY AIRPORT">
  <Location Lat="66.546111" Lon="-18.017222"/>
  <Runways>
   <Runway>17</Runway>
   <Runway>35</Runway>
  </Runways>
 </Airport>
 <Airport ID="BIHK" Name="HOLMAVIK AIRPORT">
  <Location Lat="65.704722" Lon="-21.696389"/>
  <Runways>
   <Runway>02</Runway>
   <Runway>20</Runway>
  </Runways>
 </Airport>
 <Airport ID="BIHN" Name="HORNAFJORDUR AIRPORT">
  <Location Lat="64.295556" Lon="-15.227222"/>
  <Runways>
   <Runway>18</Runway>
   <Runway>36</Runway>
  </Runways>
 </Airport>
 <Airport ID="BIHU" Name="HUSAVIK AIRPORT">
  <Location Lat="65.952500" Lon="-17.425833"/>
  <Runways>
   <Runway>03</Runway>
   <Runway>21</Runway>
  </Runways>
 </Airport>
 <Airport ID="BIIS" Name="ISAFJORDUR AIRPORT">
  <Location Lat="66.058056" Lon="-23.135278"/>
  <Runways>
   <Runway>08</Runway>
   <Runway>26</Runway>
  </Runways>
 </Airport>
 <Airport ID="BIKF" Name="KEFLAVIK AIRPORT">
  <Location Lat="63.985000" Lon="-22.605556"/>
  <Runways>
   <Runway>02</Runway>
   <Runway>11</Runway>
   <Runway>20</Runway>
   <Runway>29</Runway>
  </Runways>
 </Airport>
 <Airport ID="BIKP" Name="KOPASKER AIRPORT">
  <Location Lat="66.310833" Lon="-16.466667"/>
  <Runways>
   <Runway>12</Runway>
   <Runway>30</Runway>
  </Runways>
 </Airport>
 <Airport ID="BIKR" Name="SAUDARKROKUR AIRPORT">
  <Location Lat="65.731667" Lon="-19.572778"/>
  <Runways>
   <Runway>01</Runway>
   <Runway>19</Runway>
  </Runways>
 </Airport>
 <Airport ID="BINF" Name="NORDFJORDUR AIRPORT">
  <Location Lat="65.131667" Lon="-13.746945"/>
  <Runways>
   <Runway>08</Runway>
   <Runway>26</Runway>
  </Runways>
 </Airport>
 <Airport ID="BIRF" Name="RIF AIRPORT">
  <Location Lat="64.911389" Lon="-23.823056"/>
  <Runways>
   <Runway>06</Runway>
   <Runway>11</Runway>
   <Runway>24</Runway>
   <Runway>29</Runway>
  </Runways>
 </Airport>
 <Airport ID="BIRG" Name="RAUFARHOFN AIRPORT">
  <Location Lat="66.406389" Lon="-15.918334"/>
  <Runways>
   <Runway>07</Runway>
   <Runway>25</Runway>
  </Runways>
 </Airport>
 <Airport ID="BIRK" Name="REYKJAVIK AIRPORT">
  <Location Lat="64.130000" Lon="-21.940556"/>
  <Runways>
   <Runway>01</Runway>
   <Runway>06</Runway>
   <Runway>13</Runway>
   <Runway>19</Runway>
   <Runway>24</Runway>
   <Runway>31</Runway>
  </Runways>
 </Airport>
 <Airport ID="BIRL" Name="REYKJAHLID AIRPORT">
  <Location Lat="65.655278" Lon="-16.918056"/>
  <Runways>
   <Runway>02</Runway>
   <Runway>20</Runway>
  </Runways>
 </Airport>
 <Airport ID="BISA" Name="SAUDARFLUGVOLLUR AIRPORT">
  <Location Lat="64.833333" Lon="-16.033333"/>
  <Runways>
   <Runway>03</Runway>
   <Runway>06</Runway>
   <Runway>10</Runway>
   <Runway>13</Runway>
   <Runway>18</Runway>
   <Runway>21</Runway>
   <Runway>24</Runway>
   <Runway>28</Runway>
   <Runway>31</Runway>
   <Runway>36</Runway>
  </Runways>
 </Airport>
 <Airport ID="BISF" Name="SELFOSS AIRPORT">
  <Location Lat="63.929167" Lon="-21.037778"/>
  <Runways>
   <Runway>05</Runway>
   <Runway>15</Runway>
   <Runway>23</Runway>
   <Runway>33</Runway>
  </Runways>
 </Airport>
 <Airport ID="BISI" Name="SIGLUFJORDUR AIRPORT">
  <Location Lat="66.133333" Lon="-18.916667"/>
  <Runways>
   <Runway>06</Runway>
   <Runway>24</Runway>
  </Runways>
 </Airport>
 <Airport ID="BIST" Name="STYKKISHOLMUR AIRPORT">
  <Location Lat="65.058056" Lon="-22.794167"/>
  <Runways>
   <Runway>07</Runway>
   <Runway>25</Runway>
  </Runways>
 </Airport>
 <Airport ID="BITE" Name="THINGEYRI AIRPORT">
  <Location Lat="65.870278" Lon="-23.559722"/>
  <Runways>
   <Runway>14</Runway>
   <Runway>32</Runway>
  </Runways>
 </Airport>
 <Airport ID="BITN" Name="THORSHOFN AIRPORT">
  <Location Lat="66.218333" Lon="-15.334722"/>
  <Runways>
   <Runway>02</Runway>
   <Runway>20</Runway>
  </Runways>
 </Airport>
 <Airport ID="BIVM" Name="VESTMANNAEYJAR AIRPORT">
  <Location Lat="63.425000" Lon="-20.279167"/>
  <Runways>
   <Runway>03</Runway>
   <Runway>12</Runway>
   <Runway>21</Runway>
   <Runway>30</Runway>
  </Runways>
 </Airport>
 <Airport ID="BIVO" Name="VOPNAFJORDUR AIRPORT">
  <Location Lat="65.720556" Lon="-14.850556"/>
  <Runways>
   <Runway>05</Runway>
   <Runway>23</Runway>
  </Runways>
 </Airport>
 <Airport ID="BKPR" Name="ADEM JASHARI AIRPORT">
  <Location Lat="42.572778" Lon="21.035833"/>
  <Runways>
   <Runway>17</Runway>
   <Runway>35</Runway>
  </Runways>
 </Airport>
 <Airport ID="C01A" Name="PURKEYPILE AIRPORT">
  <Location Lat="62.943611" Lon="-152.270017"/>
  <Runways>
   <Runway>01</Runway>
   <Runway>19</Runway>
  </Runways>
 </Airport>
 <Airport ID="C0AK" Name="PILOT STATION AIRPORT">
  <Location Lat="61.934556" Lon="-162.899556"/>
  <Runways>
   <Runway>07</Runway>
   <Runway>25</Runway>
  </Runways>
 </Airport>
 <Airport ID="C15Z" Name="MCCARTHY AIRPORT">
  <Location Lat="61.437061" Lon="-142.903736"/>
  <Runways>
   <Runway>01</Runway>
   <Runway>19</Runway>
  </Runways>
 </Airport>
 <Airport ID="C1KC" Name="KALAKAKET CREEK AS AIRPORT">
  <Location Lat="64.424447" Lon="-156.843339"/>
  <Runways>
   <Runway>09</Runway>
   <Runway>27</Runway>
  </Runways>
 </Airport>
 <Airport ID="C20K" Name="QUAIL CREEK AIRPORT">
  <Location Lat="65.353981" Lon="-149.762225"/>
  <Runways>
   <Runway>16</Runway>
   <Runway>34</Runway>
  </Runways>
 </Airport>
 <Airport ID="C2AK" Name="LIME VILLAGE AIRPORT">
  <Location Lat="61.359131" Lon="-155.440386"/>
  <Runways>
   <Runway>10</Runway>
   <Runway>28</Runway>
  </Runways>
 </Airport>
 <Airport ID="C2K5" Name="TELIDA AIRPORT">
  <Location Lat="63.378986" Lon="-153.284217"/>
  <Runways>
   <Runway>02</Runway>
   <Runway>20</Runway>
  </Runways>
 </Airport>
 <Airport ID="C2Z2" Name="EUREKA CREEK AIRPORT">
  <Location Lat="65.175911" Lon="-150.220539"/>
  <Runways>
   <Runway>16</Runway>
   <Runway>34</Runway>
  </Runways>
 </Airport>
 <Airport ID="C3AK" Name="DRY BAY AIRPORT">
  <Location Lat="59.164333" Lon="-138.488806"/>
  <Runways>
   <Runway>05</Runway>
   <Runway>23</Runway>
  </Runways>
 </Airport>
 <Airport ID="C3T4" Name="TETLIN AIRPORT">
  <Location Lat="63.124694" Lon="-142.518556"/>
  <Runways>
   <Runway>08</Runway>
   <Runway>26</Runway>
  </Runways>
 </Airport>
 <Airport ID="C3Z1" Name="FEATHER RIVER AIRPORT">
  <Location Lat="64.831667" Lon="-166.131500"/>
  <Runways>
   <Runway>12</Runway>
   <Runway>30</Runway>
  </Runways>
 </Airport>
 <Airport ID="C4A2" Name="ATMAUTLUAK AIRPORT">
  <Location Lat="60.867889" Lon="-162.274278"/>
  <Runways>
   <Runway>15</Runway>
   <Runway>33</Runway>
  </Runways>
 </Airport>
 <Airport ID="C4AK" Name="LIVENGOOD CAMP AIRPORT">
  <Location Lat="65.470108" Lon="-148.654642"/>
  <Runways>
   <Runway>15</Runway>
   <Runway>33</Runway>
  </Runways>
 </Airport>
 <Airport ID="C4K0" Name="PEDRO BAY AIRPORT">
  <Location Lat="59.796945" Lon="-154.129972"/>
  <Runways>
   <Runway>09</Runway>
   <Runway>27</Runway>
  </Runways>
 </Airport>
 <Airport ID="C4K5" Name="OUZINKIE AIRPORT">
  <Location Lat="57.942197" Lon="-152.464981"/>
  <Runways>
   <Runway>08</Runway>
   <Runway>26</Runway>
  </Runways>
 </Airport>
 <Airport ID="C4KA" Name="TUNUNAK AIRPORT">
  <Location Lat="60.575547" Lon="-165.271647"/>
  <Runways>
   <Runway>08</Runway>
   <Runway>26</Runway>
  </Runways>
 </Airport>
 <Airport ID="C4Z9" Name="JAKOLOF BAY AIRPORT">
  <Location Lat="59.452161" Lon="-151.522381"/>
  <Runways>
   <Runway>12</Runway>
   <Runway>30</Runway>
  </Runways>
 </Airport>
 <Airport ID="C51Z" Name="MINTO AL WRIGHT AIRPORT">
  <Location Lat="65.148167" Lon="-149.368583"/>
  <Runways>
   <Runway>02</Runway>
   <Runway>20</Runway>
  </Runways>
 </Airport>
 <Airport ID="C5A8" Name="ALEKNAGIK NEW AIRPORT">
  <Location Lat="59.282556" Lon="-158.617867"/>
  <Runways>
   <Runway>15</Runway>
   <Runway>33</Runway>
  </Runways>
 </Airport>
 <Airport ID="C5BK" Name="BLACK RAPIDS AIRPORT">
  <Location Lat="63.535147" Lon="-145.860886"/>
  <Runways>
   <Runway>14</Runway>
   <Runway>32</Runway>
  </Runways>
 </Airport>
 <Airport ID="C5CD" Name="CHANDALAR SHELF AIRPORT">
  <Location Lat="68.065439" Lon="-149.579739"/>
  <Runways>
   <Runway>01</Runway>
   <Runway>19</Runway>
  </Runways>
 </Airport>
 <Airport ID="C5HO" Name="HOPE AIRPORT">
  <Location Lat="60.907264" Lon="-149.622814"/>
  <Runways>
   <Runway>16</Runway>
   <Runway>34</Runway>
  </Runways>
 </Airport>
 <Airport ID="C5KS" Name="KASILOF AIRPORT">
  <Location Lat="60.350522" Lon="-151.262856"/>
  <Runways>
   <Runway>01</Runway>
   <Runway>19</Runway>
  </Runways>
 </Airport>
 <Airport ID="C5NK" Name="NAKNEK AIRPORT">
  <Location Lat="58.734664" Lon="-157.025211"/>
  <Runways>
   <Runway>08</Runway>
   <Runway>14</Runway>
   <Runway>26</Runway>
   <Runway>32</Runway>
  </Runways>
 </Airport>
 <Airport ID="C5QC" Name="QUARTZ CREEK KOUGARO AIRPORT">
  <Location Lat="65.405933" Lon="-164.655725"/>
  <Runways>
   <Runway>12</Runway>
   <Runway>30</Runway>
  </Runways>
 </Airport>
 <Airport ID="C5Z5" Name="KANTISHNA AIRPORT">
  <Location Lat="63.541714" Lon="-150.993956"/>
  <Runways>
   <Runway>10</Runway>
   <Runway>28</Runway>
  </Runways>
 </Airport>
 <Airport ID="C6AK" Name="RAINY PASS LODGE AIRPORT">
  <Location Lat="62.084142" Lon="-152.717525"/>
  <Runways>
   <Runway>11</Runway>
   <Runway>29</Runway>
  </Runways>
 </Airport>
 <Airport ID="C6R7" Name="OLD HARBOR AIRPORT">
  <Location Lat="57.218306" Lon="-153.269833"/>
  <Runways>
   <Runway>03</Runway>
   <Runway>21</Runway>
  </Runways>
 </Airport>
 <Airport ID="C76Z" Name="NAKEEN AIRPORT">
  <Location Lat="58.927606" Lon="-157.047153"/>
  <Runways>
   <Runway>04</Runway>
   <Runway>22</Runway>
  </Runways>
 </Airport>
 <Airport ID="C94Z" Name="NOME CITY AIRPORT">
  <Location Lat="64.511422" Lon="-165.390231"/>
  <Runways>
   <Runway>03</Runway>
   <Runway>21</Runway>
  </Runways>
 </Airport>
 <Airport ID="C95Z" Name="BRADLEY SKY RANCH AIRPORT">
  <Location Lat="64.759167" Lon="-147.387667"/>
  <Runways>
   <Runway>15</Runway>
   <Runway>33</Runway>
  </Runways>
 </Airport>
 <Airport ID="C9A8" Name="UGASHIK AIRPORT">
  <Location Lat="57.523425" Lon="-157.395995"/>
  <Runways>
   <Runway>06</Runway>
   <Runway>24</Runway>
  </Runways>
 </Airport>
 <Airport ID="C9Z8" Name="LEVELOCK AIRPORT">
  <Location Lat="59.127083" Lon="-156.859889"/>
  <Runways>
   <Runway>01</Runway>
   <Runway>19</Runway>
  </Runways>
 </Airport>
 <Airport ID="C9Z9" Name="LAWING AIRPORT">
  <Location Lat="60.411886" Lon="-149.369342"/>
  <Runways>
   <Runway>15</Runway>
   <Runway>33</Runway>
  </Runways>
 </Airport>
 <Airport ID="CA13" Name="BOLD AIRPORT">
  <Location Lat="61.341339" Lon="-148.998881"/>
  <Runways>
   <Runway>14</Runway>
   <Runway>32</Runway>
  </Runways>
 </Airport>
 <Airport ID="CA35" Name="SAN RAFAEL AIRPORT">
  <Location Lat="38.016867" Lon="-122.520808"/>
  <Runways>
   <Runway>04</Runway>
   <Runway>22</Runway>
  </Runways>
 </Airport>
 <Airport ID="CA51" Name="THE SEA RANCH AIRPORT">
  <Location Lat="38.704633" Lon="-123.432508"/>
  <Runways>
   <Runway>12</Runway>
   <Runway>30</Runway>
  </Runways>
 </Airport>
 <Airport ID="CA57" Name="ALSEK RIVER AIRPORT">
  <Location Lat="59.199217" Lon="-138.451000"/>
  <Runways>
   <Runway>07</Runway>
   <Runway>25</Runway>
  </Runways>
 </Airport>
 <Airport ID="CA61" Name="TUNTUTULIAK AIRPORT">
  <Location Lat="60.335345" Lon="-162.667008"/>
  <Runways>
   <Runway>02</Runway>
   <Runway>20</Runway>
  </Runways>
 </Airport>
 <Airport ID="CA63" Name="TWIN HILLS AIRPORT">
  <Location Lat="59.074525" Lon="-160.275042"/>
  <Runways>
   <Runway>18</Runway>
   <Runway>36</Runway>
  </Runways>
 </Airport>
 <Airport ID="CA70" Name="DANGEROUS RIVER AIRPORT">
  <Location Lat="59.404717" Lon="-139.232933"/>
  <Runways>
   <Runway>02</Runway>
   <Runway>20</Runway>
  </Runways>
 </Airport>
 <Airport ID="CA79" Name="CHIGNIK LAKE AIRPORT">
  <Location Lat="56.255458" Lon="-158.777833"/>
  <Runways>
   <Runway>08</Runway>
   <Runway>26</Runway>
  </Runways>
 </Airport>
 <Airport ID="CA88" Name="SAN ARDO AIRPORT">
  <Location Lat="36.026075" Lon="-120.907684"/>
  <Runways>
   <Runway>14</Runway>
   <Runway>32</Runway>
  </Runways>
 </Airport>
 <Airport ID="CA92" Name="PARADISE SKYPARK AIRPORT">
  <Location Lat="39.710556" Lon="-121.616500"/>
  <Runways>
   <Runway>17</Runway>
   <Runway>35</Runway>
  </Runways>
 </Airport>
 <Airport ID="CAA8" Name="INVERMERE AIRPORT">
  <Location Lat="50.516667" Lon="-116.001111"/>
  <Runways>
   <Runway>15</Runway>
   <Runway>33</Runway>
  </Runways>
 </Airport>
 <Airport ID="CAD4" Name="TRAIL AIRPORT">
  <Location Lat="49.055542" Lon="-117.609208"/>
  <Runways>
   <Runway>16</Runway>
   <Runway>34</Runway>
  </Runways>
 </Airport>
 <Airport ID="CAD5" Name="MERRITT AIRPORT">
  <Location Lat="50.123611" Lon="-120.743889"/>
  <Runways>
   <Runway>03</Runway>
   <Runway>21</Runway>
  </Runways>
 </Airport>
 <Airport ID="CAE4" Name="TSACHA LAKE AIRPORT">
  <Location Lat="53.016667" Lon="-124.833334"/>
  <Runways>
   <Runway>06</Runway>
   <Runway>24</Runway>
  </Runways>
 </Airport>
 <Airport ID="CAF4" Name="TSUNIAH LAKE LODGE AIRPORT">
  <Location Lat="51.533333" Lon="-124.166667"/>
  <Runways>
   <Runway>04</Runway>
   <Runway>22</Runway>
  </Runways>
 </Airport>
 <Airport ID="CAG2" Name="AEROGATE AIRPORT">
  <Location Lat="50.597778" Lon="-104.601111"/>
  <Runways>
   <Runway>11</Runway>
   <Runway>29</Runway>
  </Runways>
 </Airport>
 <Airport ID="CAG3" Name="CHILKO LAKE TSYLOS P AIRPORT">
  <Location Lat="51.626111" Lon="-124.141944"/>
  <Runways>
   <Runway>18</Runway>
   <Runway>36</Runway>
  </Runways>
 </Airport>
 <Airport ID="CAH3" Name="COURTENAY AIRPORT">
  <Location Lat="49.679445" Lon="-124.981667"/>
  <Runways>
   <Runway>13</Runway>
   <Runway>31</Runway>
  </Runways>
 </Airport>
 <Airport ID="CAH4" Name="VALEMOUNT AIRPORT">
  <Location Lat="52.852750" Lon="-119.336261"/>
  <Runways>
   <Runway>14</Runway>
   <Runway>32</Runway>
  </Runways>
 </Airport>
 <Airport ID="CAJ2" Name="WILEY AIRPORT">
  <Location Lat="66.491111" Lon="-136.573333"/>
  <Runways>
   <Runway>16</Runway>
   <Runway>34</Runway>
  </Runways>
 </Airport>
 <Airport ID="CAJ3" Name="CRESTON AIRPORT">
  <Location Lat="49.036606" Lon="-116.498000"/>
  <Runways>
   <Runway>15</Runway>
   <Runway>33</Runway>
  </Runways>
 </Airport>
 <Airport ID="CAJ4" Name="ANAHIM LAKE AIRPORT">
  <Location Lat="52.451275" Lon="-125.303608"/>
  <Runways>
   <Runway>13</Runway>
   <Runway>31</Runway>
  </Runways>
 </Airport>
 <Airport ID="CAJ7" Name="A. J. FLYING RANCH AIRPORT">
  <Location Lat="50.453667" Lon="-113.747325"/>
  <Runways>
   <Runway>07</Runway>
   <Runway>25</Runway>
  </Runways>
 </Airport>
 <Airport ID="CAJ9" Name="FT WARE AIRPORT">
  <Location Lat="57.427222" Lon="-125.650278"/>
  <Runways>
   <Runway>09</Runway>
   <Runway>27</Runway>
  </Runways>
 </Airport>
 <Airport ID="CAK0" Name="JAKES BAR AIRPORT">
  <Location Lat="61.218722" Lon="-142.889825"/>
  <Runways>
   <Runway>10</Runway>
   <Runway>28</Runway>
  </Runways>
 </Airport>
 <Airport ID="CAK1" Name="BUTTE MUN AIRPORT">
  <Location Lat="61.530317" Lon="-149.017636"/>
  <Runways>
   <Runway>07</Runway>
   <Runway>25</Runway>
  </Runways>
 </Airport>
 <Airport ID="CAK3" Name="DELTA HERITAGE AIR P AIRPORT">
  <Location Lat="49.078611" Lon="-122.938056"/>
  <Runways>
   <Runway>07</Runway>
   <Runway>25</Runway>
  </Runways>
 </Airport>
 <Airport ID="CAK7" Name="GOLD KING CREEK AIRPORT">
  <Location Lat="64.198056" Lon="-147.928611"/>
  <Runways>
   <Runway>09</Runway>
   <Runway>27</Runway>
  </Runways>
 </Airport>
 <Airport ID="CAL3" Name="DOUGLAS LAKE AIRPORT">
  <Location Lat="50.166667" Lon="-120.183333"/>
  <Runways>
   <Runway>08</Runway>
   <Runway>26</Runway>
  </Runways>
 </Airport>
 <Airport ID="CAL4" Name="ALBIAN AIRPORT">
  <Location Lat="57.223889" Lon="-111.418889"/>
  <Runways>
   <Runway>13</Runway>
   <Runway>31</Runway>
  </Runways>
 </Airport>
 <Airport ID="CAM3" Name="DUNCAN AIRPORT">
  <Location Lat="48.758333" Lon="-123.716667"/>
  <Runways>
   <Runway>13</Runway>
   <Runway>31</Runway>
  </Runways>
 </Airport>
 <Airport ID="CAM5" Name="HOUSTON AIRPORT">
  <Location Lat="54.433333" Lon="-126.783333"/>
  <Runways>
   <Runway>12</Runway>
   <Runway>30</Runway>
  </Runways>
 </Airport>
 <Airport ID="CAP3" Name="SECHELT AIRPORT">
  <Location Lat="49.460556" Lon="-123.718611"/>
  <Runways>
   <Runway>11</Runway>
   <Runway>29</Runway>
  </Runways>
 </Airport>
 <Airport ID="CAP6" Name="INGENIKA AIRPORT">
  <Location Lat="56.790556" Lon="-124.896667"/>
  <Runways>
   <Runway>11</Runway>
   <Runway>29</Runway>
  </Runways>
 </Airport>
 <Airport ID="CAQ4" Name="SPRINGHOUSE AIRPARK AIRPORT">
  <Location Lat="51.955556" Lon="-122.139444"/>
  <Runways>
   <Runway>15</Runway>
   <Runway>33</Runway>
  </Runways>
 </Airport>
 <Airport ID="CAQ5" Name="NAKUSP AIRPORT">
  <Location Lat="50.266389" Lon="-117.812778"/>
  <Runways>
   <Runway>12</Runway>
   <Runway>30</Runway>
  </Runways>
 </Airport>
 <Airport ID="CAQY" Name="GIRDWOOD AIRPORT">
  <Location Lat="60.969022" Lon="-149.119347"/>
  <Runways>
   <Runway>02</Runway>
   <Runway>20</Runway>
  </Runways>
 </Airport>
 <Airport ID="CAR2" Name="CRAWFORD BAY AIRPORT">
  <Location Lat="49.666667" Lon="-116.816667"/>
  <Runways>
   <Runway>14</Runway>
   <Runway>32</Runway>
  </Runways>
 </Airport>
 <Airport ID="CAS2" Name="MOOSE LAKE LODGE AIRPORT">
  <Location Lat="53.073333" Lon="-125.409167"/>
  <Runways>
   <Runway>06</Runway>
   <Runway>24</Runway>
  </Runways>
 </Airport>
 <Airport ID="CAS3" Name="BARKERVILLE AIRPORT">
  <Location Lat="53.088056" Lon="-121.515278"/>
  <Runways>
   <Runway>11</Runway>
   <Runway>29</Runway>
  </Runways>
 </Airport>
 <Airport ID="CAT1" Name="ATWOOD/COGHLIN AIRPORT">
  <Location Lat="43.683333" Lon="-81.004444"/>
  <Runways>
   <Runway>04</Runway>
   <Runway>22</Runway>
  </Runways>
 </Airport>
 <Airport ID="CAT4" Name="QUALICUM BEACH AIRPORT">
  <Location Lat="49.337297" Lon="-124.393878"/>
  <Runways>
   <Runway>11</Runway>
   <Runway>29</Runway>
  </Runways>
 </Airport>
 <Airport ID="CAT5" Name="PORT MC NEILL AIRPORT">
  <Location Lat="50.571111" Lon="-127.024722"/>
  <Runways>
   <Runway>06</Runway>
   <Runway>11</Runway>
   <Runway>24</Runway>
   <Runway>29</Runway>
  </Runways>
 </Airport>
 <Airport ID="CAU3" Name="OLIVER AIRPORT">
  <Location Lat="49.173333" Lon="-119.551111"/>
  <Runways>
   <Runway>18</Runway>
   <Runway>36</Runway>
  </Runways>
 </Airport>
 <Airport ID="CAU4" Name="VANDERHOOF AIRPORT">
  <Location Lat="54.046739" Lon="-124.011186"/>
  <Runways>
   <Runway>03</Runway>
   <Runway>07</Runway>
   <Runway>16</Runway>
   <Runway>21</Runway>
   <Runway>25</Runway>
   <Runway>34</Runway>
  </Runways>
 </Airport>
 <Airport ID="CAV3" Name="ONE HUNDRED MILE HOU AIRPORT">
  <Location Lat="51.642500" Lon="-121.306945"/>
  <Runways>
   <Runway>08</Runway>
   <Runway>26</Runway>
  </Runways>
 </Airport>
 <Airport ID="CAV4" Name="CHARLIE LEAKE AIRPORT">
  <Location Lat="53.315000" Lon="-120.170556"/>
  <Runways>
   <Runway>12</Runway>
   <Runway>30</Runway>
  </Runways>
 </Airport>
 <Airport ID="CAV9" Name="OAK HAMMOCK AIR PARK AIRPORT">
  <Location Lat="50.137778" Lon="-97.061389"/>
  <Runways>
   <Runway>18</Runway>
   <Runway>36</Runway>
  </Runways>
 </Airport>
 <Airport ID="CAW3" Name="SCUM LAKE AIRPORT">
  <Location Lat="51.800000" Lon="-123.583333"/>
  <Runways>
   <Runway>03</Runway>
   <Runway>21</Runway>
  </Runways>
 </Airport>
 <Airport ID="CAX2" Name="AXE LAKE AIRPORT">
  <Location Lat="57.269036" Lon="-109.847503"/>
  <Runways>
   <Runway>09</Runway>
   <Runway>27</Runway>
  </Runways>
 </Airport>
 <Airport ID="CAX5" Name="LIKELY AIRPORT">
  <Location Lat="52.616667" Lon="-121.500000"/>
  <Runways>
   <Runway>08</Runway>
   <Runway>26</Runway>
  </Runways>
 </Airport>
 <Airport ID="CAY2" Name="GANG RANCH AIRPORT">
  <Location Lat="51.551667" Lon="-122.326945"/>
  <Runways>
   <Runway>08</Runway>
   <Runway>26</Runway>
  </Runways>
 </Airport>
 <Airport ID="CAZ5" Name="CACHE CREEK AIRPORT">
  <Location Lat="50.775039" Lon="-121.321208"/>
  <Runways>
   <Runway>15</Runway>
   <Runway>33</Runway>
  </Runways>
 </Airport>
 <Airport ID="CBA8" Name="BEAVERLEY AIRPORT">
  <Location Lat="53.855556" Lon="-122.907500"/>
  <Runways>
   <Runway>07</Runway>
   <Runway>25</Runway>
  </Runways>
 </Airport>
 <Airport ID="CBA9" Name="OSPIKA AIRPORT">
  <Location Lat="56.270750" Lon="-124.063847"/>
  <Runways>
   <Runway>02</Runway>
   <Runway>20</Runway>
  </Runways>
 </Airport>
 <Airport ID="CBB7" Name="TIPELLA AIRPORT">
  <Location Lat="49.743056" Lon="-122.163056"/>
  <Runways>
   <Runway>11</Runway>
   <Runway>29</Runway>
  </Runways>
 </Airport>
 <Airport ID="CBB9" Name="OSOYOOS AIRPORT">
  <Location Lat="49.037222" Lon="-119.488889"/>
  <Runways>
   <Runway>12</Runway>
   <Runway>30</Runway>
  </Runways>
 </Airport>
 <Airport ID="CBBC" Name="BELLA BELLA CAMPBELL AIRPORT">
  <Location Lat="52.185125" Lon="-128.156792"/>
  <Runways>
   <Runway>13</Runway>
   <Runway>31</Runway>
  </Runways>
 </Airport>
 <Airport ID="CBC2" Name="FORD BAY AIRPORT">
  <Location Lat="66.037500" Lon="-124.715000"/>
  <Runways>
   <Runway>06</Runway>
   <Runway>24</Runway>
  </Runways>
 </Airport>
 <Airport ID="CBD6" Name="NAHANNI BUTTE AIRPORT">
  <Location Lat="61.029586" Lon="-123.388350"/>
  <Runways>
   <Runway>16</Runway>
   <Runway>34</Runway>
  </Runways>
 </Airport>
 <Airport ID="CBD8" Name="FLYING R RANCH AIRPORT">
  <Location Lat="50.644936" Lon="-114.202942"/>
  <Runways>
   <Runway>08</Runway>
   <Runway>26</Runway>
  </Runways>
 </Airport>
 <Airport ID="CBE2" Name="DEMERS MEML AIRPORT">
  <Location Lat="49.283333" Lon="-115.150000"/>
  <Runways>
   <Runway>03</Runway>
   <Runway>21</Runway>
  </Runways>
 </Airport>
 <Airport ID="CBF9" Name="MABEL LAKE AIRPORT">
  <Location Lat="50.608889" Lon="-118.731111"/>
  <Runways>
   <Runway>16</Runway>
   <Runway>34</Runway>
  </Runways>
 </Airport>
 <Airport ID="CBG2" Name="GREEN LAKE AIRPORT">
  <Location Lat="51.429445" Lon="-121.209722"/>
  <Runways>
   <Runway>18</Runway>
   <Runway>36</Runway>
  </Runways>
 </Airport>
 <Airport ID="CBH2" Name="HELMET AIRPORT">
  <Location Lat="59.425772" Lon="-120.797517"/>
  <Runways>
   <Runway>12</Runway>
   <Runway>30</Runway>
  </Runways>
 </Airport>
 <Airport ID="CBH4" Name="PRAIRIE CREEK AIRPORT">
  <Location Lat="61.564722" Lon="-124.815000"/>
  <Runways>
   <Runway>14</Runway>
   <Runway>32</Runway>
  </Runways>
 </Airport>
 <Airport ID="CBJ4" Name="ECHO VALLEY AIRPORT">
  <Location Lat="51.241667" Lon="-121.994167"/>
  <Runways>
   <Runway>07</Runway>
   <Runway>25</Runway>
  </Runways>
 </Airport>
 <Airport ID="CBJ6" Name="POINTED MOUNTAIN AIRPORT">
  <Location Lat="60.333333" Lon="-123.833334"/>
  <Runways>
   <Runway>10</Runway>
   <Runway>28</Runway>
  </Runways>
 </Airport>
 <Airport ID="CBK6" Name="QUESNEL LAKE AIRPORT">
  <Location Lat="52.515000" Lon="-121.045000"/>
  <Runways>
   <Runway>07</Runway>
   <Runway>25</Runway>
  </Runways>
 </Airport>
 <Airport ID="CBK7" Name="MILE 422 ALASKA HIGH AIRPORT">
  <Location Lat="58.849445" Lon="-125.240000"/>
  <Runways>
   <Runway>07</Runway>
   <Runway>25</Runway>
  </Runways>
 </Airport>
 <Airport ID="CBL3" Name="GORDON FIELD">
  <Location Lat="58.816667" Lon="-122.783333"/>
  <Runways>
   <Runway>12</Runway>
   <Runway>30</Runway>
  </Runways>
 </Airport>
 <Airport ID="CBL6" Name="RADIUM HOT SPRINGS AIRPORT">
  <Location Lat="50.633333" Lon="-116.100000"/>
  <Runways>
   <Runway>16</Runway>
   <Runway>34</Runway>
  </Runways>
 </Airport>
 <Airport ID="CBL9" Name="ELKIN CREEK GUEST RA AIRPORT">
  <Location Lat="51.512778" Lon="-123.804445"/>
  <Runways>
   <Runway>18</Runway>
   <Runway>36</Runway>
  </Runways>
 </Airport>
 <Airport ID="CBM2" Name="MARTYN AIRPORT">
  <Location Lat="44.094806" Lon="-78.736250"/>
  <Runways>
   <Runway>12</Runway>
   <Runway>17</Runway>
   <Runway>30</Runway>
   <Runway>35</Runway>
  </Runways>
 </Airport>
 <Airport ID="CBM6" Name="MIDWAY AIRPORT">
  <Location Lat="49.010000" Lon="-118.789722"/>
  <Runways>
   <Runway>08</Runway>
   <Runway>26</Runway>
  </Runways>
 </Airport>
 <Airport ID="CBN9" Name="TSAY KEH AIRPORT">
  <Location Lat="56.906111" Lon="-124.965000"/>
  <Runways>
   <Runway>12</Runway>
   <Runway>30</Runway>
  </Runways>
 </Airport>
 <Airport ID="CBQ2" Name="FORT LANGLEY AIRPORT">
  <Location Lat="49.167472" Lon="-122.554417"/>
  <Runways>
   <Runway>08</Runway>
   <Runway>26</Runway>
  </Runways>
 </Airport>
 <Airport ID="CBQ7" Name="KEMESS CREEK AIRPORT">
  <Location Lat="56.974306" Lon="-126.740917"/>
  <Runways>
   <Runway>11</Runway>
   <Runway>29</Runway>
  </Runways>
 </Airport>
 <Airport ID="CBQ8" Name="WOODCOCK AIRPORT">
  <Location Lat="55.066667" Lon="-128.233333"/>
  <Runways>
   <Runway>02</Runway>
   <Runway>20</Runway>
  </Runways>
 </Airport>
 <Airport ID="CBR2" Name="KASLO AIRPORT">
  <Location Lat="49.903611" Lon="-116.935278"/>
  <Runways>
   <Runway>07</Runway>
   <Runway>25</Runway>
  </Runways>
 </Airport>
 <Airport ID="CBS2" Name="BLUE SKY AIRPORT">
  <Location Lat="49.294111" Lon="-103.020667"/>
  <Runways>
   <Runway>02</Runway>
   <Runway>12</Runway>
   <Runway>20</Runway>
   <Runway>30</Runway>
  </Runways>
 </Airport>
 <Airport ID="CBS4" Name="MULE CREEK AIRPORT">
  <Location Lat="59.783333" Lon="-136.583333"/>
  <Runways>
   <Runway>16</Runway>
   <Runway>34</Runway>
  </Runways>
 </Airport>
 <Airport ID="CBS7" Name="BRIERCREST SOUTH AIRPORT">
  <Location Lat="50.066389" Lon="-105.300556"/>
  <Runways>
   <Runway>08</Runway>
   <Runway>26</Runway>
  </Runways>
 </Airport>
 <Airport ID="CBS8" Name="ALBERNI VALLEY REGIO AIRPORT">
  <Location Lat="49.321945" Lon="-124.931111"/>
  <Runways>
   <Runway>12</Runway>
   <Runway>30</Runway>
  </Runways>
 </Airport>
 <Airport ID="CBT3" Name="PAN PHILLIPS AIRPORT">
  <Location Lat="52.971945" Lon="-125.026667"/>
  <Runways>
   <Runway>02</Runway>
   <Runway>20</Runway>
  </Runways>
 </Airport>
 <Airport ID="CBU2" Name="ISKUT VILLAGE AIRPORT">
  <Location Lat="57.847222" Lon="-129.982778"/>
  <Runways>
   <Runway>09</Runway>
   <Runway>27</Runway>
  </Runways>
 </Airport>
 <Airport ID="CBV6" Name="PETITOT AIRPORT">
  <Location Lat="59.750000" Lon="-121.833334"/>
  <Runways>
   <Runway>08</Runway>
   <Runway>26</Runway>
  </Runways>
 </Airport>
 <Airport ID="CBW2" Name="KITIMAT AIRPORT">
  <Location Lat="54.166667" Lon="-128.583333"/>
  <Runways>
   <Runway>17</Runway>
   <Runway>35</Runway>
  </Runways>
 </Airport>
 <Airport ID="CBW3" Name="FORT GRAHAME AIRPORT">
  <Location Lat="56.521667" Lon="-124.468333"/>
  <Runways>
   <Runway>13</Runway>
   <Runway>31</Runway>
  </Runways>
 </Airport>
 <Airport ID="CBW4" Name="BOB QUINN LAKE AIRPORT">
  <Location Lat="56.966759" Lon="-130.249314"/>
  <Runways>
   <Runway>15</Runway>
   <Runway>33</Runway>
  </Runways>
 </Airport>
 <Airport ID="CBW8" Name="BALDWIN WEST AIRPORT">
  <Location Lat="44.277500" Lon="-79.361583"/>
  <Runways>
   <Runway>18</Runway>
   <Runway>36</Runway>
  </Runways>
 </Airport>
 <Airport ID="CBX2" Name="MOBIL SIERRA AIRPORT">
  <Location Lat="58.834722" Lon="-121.392778"/>
  <Runways>
   <Runway>12</Runway>
   <Runway>30</Runway>
  </Runways>
 </Airport>
 <Airport ID="CBX3" Name="CHILANKO LODGE AIRPORT">
  <Location Lat="51.950000" Lon="-124.883334"/>
  <Runways>
   <Runway>15</Runway>
   <Runway>33</Runway>
  </Runways>
 </Airport>
 <Airport ID="CBX5" Name="CANTUNG AIRPORT">
  <Location Lat="61.956945" Lon="-128.202778"/>
  <Runways>
   <Runway>10</Runway>
   <Runway>28</Runway>
  </Runways>
 </Airport>
 <Airport ID="CBX7" Name="TUMBLER RIDGE AIRPORT">
  <Location Lat="55.027347" Lon="-120.931000"/>
  <Runways>
   <Runway>02</Runway>
   <Runway>20</Runway>
  </Runways>
 </Airport>
 <Airport ID="CBYA" Name="BOUNDARY AIRPORT">
  <Location Lat="64.078303" Lon="-141.113375"/>
  <Runways>
   <Runway>05</Runway>
   <Runway>23</Runway>
  </Runways>
 </Airport>
 <Airport ID="CBZ9" Name="FRASER LAKE AIRPORT">
  <Location Lat="54.013333" Lon="-124.768333"/>
  <Runways>
   <Runway>08</Runway>
   <Runway>26</Runway>
  </Runways>
 </Airport>
 <Airport ID="CCA3" Name="CABLE HEAD AIRPARK AIRPORT">
  <Location Lat="46.433333" Lon="-62.583333"/>
  <Runways>
   <Runway>08</Runway>
   <Runway>14</Runway>
   <Runway>26</Runway>
   <Runway>32</Runway>
  </Runways>
 </Airport>
 <Airport ID="CCA6" Name="WILLIAMS HARBOUR AIRPORT">
  <Location Lat="52.567458" Lon="-55.785028"/>
  <Runways>
   <Runway>14</Runway>
   <Runway>32</Runway>
  </Runways>
 </Airport>
 <Airport ID="CCA7" Name="APPLE RIVER AIRPORT">
  <Location Lat="45.466667" Lon="-64.816667"/>
  <Runways>
   <Runway>09</Runway>
   <Runway>27</Runway>
  </Runways>
 </Airport>
 <Airport ID="CCB6" Name="CLEMENTSPORT MAPLECO AIRPORT">
  <Location Lat="44.677778" Lon="-65.604722"/>
  <Runways>
   <Runway>04</Runway>
   <Runway>22</Runway>
  </Runways>
 </Airport>
 <Airport ID="CCC2" Name="WINTERLAND AIRPORT">
  <Location Lat="47.137061" Lon="-55.329153"/>
  <Runways>
   <Runway>15</Runway>
   <Runway>33</Runway>
  </Runways>
 </Airport>
 <Airport ID="CCD2" Name="SPRINGDALE AIRPORT">
  <Location Lat="49.478889" Lon="-56.178056"/>
  <Runways>
   <Runway>10</Runway>
   <Runway>28</Runway>
  </Runways>
 </Airport>
 <Airport ID="CCD3" Name="WOODSTOCK AIRPORT">
  <Location Lat="46.150000" Lon="-67.550000"/>
  <Runways>
   <Runway>13</Runway>
   <Runway>31</Runway>
  </Runways>
 </Airport>
 <Airport ID="CCD4" Name="POSTVILLE AIRPORT">
  <Location Lat="54.910211" Lon="-59.785150"/>
  <Runways>
   <Runway>06</Runway>
   <Runway>24</Runway>
  </Runways>
 </Airport>
 <Airport ID="CCE3" Name="JUNIPER AIRPORT">
  <Location Lat="46.562703" Lon="-67.168406"/>
  <Runways>
   <Runway>02</Runway>
   <Runway>20</Runway>
  </Runways>
 </Airport>
 <Airport ID="CCE4" Name="BLACK TICKLE AIRPORT">
  <Location Lat="53.469861" Lon="-55.787528"/>
  <Runways>
   <Runway>14</Runway>
   <Runway>32</Runway>
  </Runways>
 </Airport>
 <Airport ID="CCF3" Name="HOPEWELL AIRPORT">
  <Location Lat="45.472500" Lon="-62.718056"/>
  <Runways>
   <Runway>04</Runway>
   <Runway>22</Runway>
  </Runways>
 </Airport>
 <Airport ID="CCF4" Name="PORTERS LAKE AIRPORT">
  <Location Lat="44.710000" Lon="-63.301667"/>
  <Runways>
   <Runway>15</Runway>
   <Runway>33</Runway>
  </Runways>
 </Airport>
 <Airport ID="CCF7" Name="COWAN FARM PRIVATE AIRPORT">
  <Location Lat="49.396464" Lon="-101.824953"/>
  <Runways>
   <Runway>03</Runway>
   <Runway>21</Runway>
  </Runways>
 </Airport>
 <Airport ID="CCF9" Name="SCOTTSFIELD AIRPARK AIRPORT">
  <Location Lat="45.960278" Lon="-67.095278"/>
  <Runways>
   <Runway>05</Runway>
   <Runway>23</Runway>
  </Runways>
 </Airport>
 <Airport ID="CCG3" Name="WEYMAN AIRPORT">
  <Location Lat="46.037500" Lon="-66.858889"/>
  <Runways>
   <Runway>05</Runway>
   <Runway>23</Runway>
  </Runways>
 </Airport>
 <Airport ID="CCH4" Name="CHARLOTTETOWN AIRPORT">
  <Location Lat="52.765720" Lon="-56.112583"/>
  <Runways>
   <Runway>09</Runway>
   <Runway>27</Runway>
  </Runways>
 </Airport>
 <Airport ID="CCHP" Name="CIRCLE HOT SPRINGS AIRPORT">
  <Location Lat="65.485908" Lon="-144.611686"/>
  <Runways>
   <Runway>09</Runway>
   <Runway>27</Runway>
  </Runways>
 </Airport>
 <Airport ID="CCI9" Name="CORTES ISLAND AIRPORT">
  <Location Lat="50.023611" Lon="-124.984167"/>
  <Runways>
   <Runway>16</Runway>
   <Runway>34</Runway>
  </Runways>
 </Airport>
 <Airport ID="CCJ3" Name="BOSTON BROOK AIRPORT">
  <Location Lat="47.448681" Lon="-67.624606"/>
  <Runways>
   <Runway>02</Runway>
   <Runway>20</Runway>
  </Runways>
 </Airport>
 <Airport ID="CCJX" Name="CROOKED CREEK AIRPORT">
  <Location Lat="61.867889" Lon="-158.134944"/>
  <Runways>
   <Runway>13</Runway>
   <Runway>31</Runway>
  </Runways>
 </Airport>
 <Airport ID="CCK3" Name="GRAND FALLS AIRPORT">
  <Location Lat="47.075000" Lon="-67.685000"/>
  <Runways>
   <Runway>16</Runway>
   <Runway>34</Runway>
  </Runways>
 </Airport>
 <Airport ID="CCK4" Name="FOX HARBOUR AIRPORT">
  <Location Lat="52.372761" Lon="-55.674011"/>
  <Runways>
   <Runway>05</Runway>
   <Runway>23</Runway>
  </Runways>
 </Airport>
 <Airport ID="CCKU" Name="CORDOVA MUN AIRPORT">
  <Location Lat="60.543903" Lon="-145.726706"/>
  <Runways>
   <Runway>06</Runway>
   <Runway>24</Runway>
  </Runways>
 </Airport>
 <Airport ID="CCKX" Name="CHICKEN AIRPORT">
  <Location Lat="64.066753" Lon="-141.951347"/>
  <Runways>
   <Runway>13</Runway>
   <Runway>31</Runway>
  </Runways>
 </Airport>
 <Airport ID="CCL2" Name="CANDLE LAKE AIRPORT">
  <Location Lat="53.768333" Lon="-105.307778"/>
  <Runways>
   <Runway>15</Runway>
   <Runway>33</Runway>
  </Runways>
 </Airport>
 <Airport ID="CCL3" Name="CHRISTINA LAKE AIRPORT">
  <Location Lat="55.628258" Lon="-110.750367"/>
  <Runways>
   <Runway>08</Runway>
   <Runway>26</Runway>
  </Runways>
 </Airport>
 <Airport ID="CCLF" Name="CLEAR SKY LODGE AIRPORT">
  <Location Lat="64.257033" Lon="-149.186250"/>
  <Runways>
   <Runway>02</Runway>
   <Runway>20</Runway>
  </Runways>
 </Airport>
 <Airport ID="CCM3" Name="SEVOGLE AIRPORT">
  <Location Lat="47.183333" Lon="-66.150000"/>
  <Runways>
   <Runway>16</Runway>
   <Runway>34</Runway>
  </Runways>
 </Airport>
 <Airport ID="CCM4" Name="PORT AU CHOIX AIRPORT">
  <Location Lat="50.688889" Lon="-57.331389"/>
  <Runways>
   <Runway>08</Runway>
   <Runway>26</Runway>
  </Runways>
 </Airport>
 <Airport ID="CCN2" Name="GRAND MANAN AIRPORT">
  <Location Lat="44.713414" Lon="-66.796828"/>
  <Runways>
   <Runway>06</Runway>
   <Runway>24</Runway>
  </Runways>
 </Airport>
 <Airport ID="CCP2" Name="EXPLOITS VALLEY BOTW AIRPORT">
  <Location Lat="49.056111" Lon="-55.448056"/>
  <Runways>
   <Runway>06</Runway>
   <Runway>24</Runway>
  </Runways>
 </Airport>
 <Airport ID="CCP4" Name="PORT HOPE SIMPSON AIRPORT">
  <Location Lat="52.528070" Lon="-56.285200"/>
  <Runways>
   <Runway>12</Runway>
   <Runway>30</Runway>
  </Runways>
 </Airport>
 <Airport ID="CCP6" Name="CANIAPISCAU AIRPORT">
  <Location Lat="54.837778" Lon="-69.892778"/>
  <Runways>
   <Runway>11</Runway>
   <Runway>29</Runway>
  </Runways>
 </Airport>
 <Airport ID="CCQ3" Name="DEBERT AIRPORT">
  <Location Lat="45.419220" Lon="-63.461303"/>
  <Runways>
   <Runway>05</Runway>
   <Runway>09</Runway>
   <Runway>16</Runway>
   <Runway>23</Runway>
   <Runway>27</Runway>
   <Runway>34</Runway>
  </Runways>
 </Airport>
 <Airport ID="CCR3" Name="FLORENCEVILLE AIRPORT">
  <Location Lat="46.426150" Lon="-67.627978"/>
  <Runways>
   <Runway>18</Runway>
   <Runway>36</Runway>
  </Runways>
 </Airport>
 <Airport ID="CCR4" Name="ROGERSVILLE AIRPORT">
  <Location Lat="46.716667" Lon="-65.416667"/>
  <Runways>
   <Runway>08</Runway>
   <Runway>26</Runway>
  </Runways>
 </Airport>
 <Airport ID="CCS3" Name="ST STEPHEN AIRPORT">
  <Location Lat="45.207500" Lon="-67.250556"/>
  <Runways>
   <Runway>14</Runway>
   <Runway>32</Runway>
  </Runways>
 </Airport>
 <Airport ID="CCS4" Name="CHIPMAN AIRPORT">
  <Location Lat="46.148592" Lon="-65.904181"/>
  <Runways>
   <Runway>09</Runway>
   <Runway>27</Runway>
  </Runways>
 </Airport>
 <Airport ID="CCS5" Name="HAVELOCK AIRPORT">
  <Location Lat="45.986389" Lon="-65.301945"/>
  <Runways>
   <Runway>13</Runway>
   <Runway>31</Runway>
  </Runways>
 </Airport>
 <Airport ID="CCS6" Name="COURTENAY SMIT FIELD">
  <Location Lat="49.666667" Lon="-125.100000"/>
  <Runways>
   <Runway>04</Runway>
   <Runway>22</Runway>
  </Runways>
 </Airport>
 <Airport ID="CCSR" Name="CAMPBELL AIRPORT">
  <Location Lat="61.158700" Lon="-149.780611"/>
  <Runways>
   <Runway>02</Runway>
   <Runway>20</Runway>
  </Runways>
 </Airport>
 <Airport ID="CCT2" Name="COOKSTOWN AIRPORT">
  <Location Lat="44.238889" Lon="-79.638889"/>
  <Runways>
   <Runway>18</Runway>
   <Runway>36</Runway>
  </Runways>
 </Airport>
 <Airport ID="CCV4" Name="BELL ISLAND AIRPORT">
  <Location Lat="47.633333" Lon="-52.983334"/>
  <Runways>
   <Runway>08</Runway>
   <Runway>26</Runway>
  </Runways>
 </Airport>
 <Airport ID="CCW3" Name="KINGS CO MUN AIRPORT">
  <Location Lat="45.051911" Lon="-64.651708"/>
  <Runways>
   <Runway>09</Runway>
   <Runway>27</Runway>
  </Runways>
 </Airport>
 <Airport ID="CCW4" Name="STANLEY AIRPORT">
  <Location Lat="45.100556" Lon="-63.920556"/>
  <Runways>
   <Runway>02</Runway>
   <Runway>09</Runway>
   <Runway>15</Runway>
   <Runway>20</Runway>
   <Runway>27</Runway>
   <Runway>33</Runway>
  </Runways>
 </Airport>
 <Airport ID="CCX3" Name="BROCKWAY AIRPORT">
  <Location Lat="45.566667" Lon="-67.100000"/>
  <Runways>
   <Runway>04</Runway>
   <Runway>22</Runway>
  </Runways>
 </Airport>
 <Airport ID="CCXC" Name="CHITINA AIRPORT">
  <Location Lat="61.583203" Lon="-144.429803"/>
  <Runways>
   <Runway>13</Runway>
   <Runway>31</Runway>
  </Runways>
 </Airport>
 <Airport ID="CCY3" Name="SUSSEX AIRPORT">
  <Location Lat="45.686389" Lon="-65.541889"/>
  <Runways>
   <Runway>04</Runway>
   <Runway>22</Runway>
  </Runways>
 </Airport>
 <Airport ID="CCZ2" Name="RIGOLET AIRPORT">
  <Location Lat="54.179519" Lon="-58.457097"/>
  <Runways>
   <Runway>11</Runway>
   <Runway>29</Runway>
  </Runways>
 </Airport>
 <Airport ID="CCZ3" Name="CLARENVILLE AIRPORT">
  <Location Lat="48.274664" Lon="-53.923936"/>
  <Runways>
   <Runway>08</Runway>
   <Runway>26</Runway>
  </Runways>
 </Airport>
 <Airport ID="CCZ4" Name="MARGAREE AIRPORT">
  <Location Lat="46.341111" Lon="-60.979722"/>
  <Runways>
   <Runway>01</Runway>
   <Runway>19</Runway>
  </Runways>
 </Airport>
 <Airport ID="CCZ5" Name="THORBURN AIRPORT">
  <Location Lat="45.560556" Lon="-62.594722"/>
  <Runways>
   <Runway>04</Runway>
   <Runway>22</Runway>
  </Runways>
 </Airport>
 <Airport ID="CCZN" Name="CHISANA AIRPORT">
  <Location Lat="62.071189" Lon="-142.048375"/>
  <Runways>
   <Runway>12</Runway>
   <Runway>30</Runway>
  </Runways>
 </Airport>
 <Airport ID="CCZO" Name="CHISTOCHINA AIRPORT">
  <Location Lat="62.562333" Lon="-144.672445"/>
  <Runways>
   <Runway>02</Runway>
   <Runway>20</Runway>
  </Runways>
 </Airport>
 <Airport ID="CD66" Name="DELTA JUNCTION AIRPORT">
  <Location Lat="64.051272" Lon="-145.717328"/>
  <Runways>
   <Runway>07</Runway>
   <Runway>25</Runway>
  </Runways>
 </Airport>
 <Airport ID="CDA3" Name="VALLEY AIRPORT">
  <Location Lat="45.396667" Lon="-63.215556"/>
  <Runways>
   <Runway>09</Runway>
   <Runway>27</Runway>
  </Runways>
 </Airport>
 <Airport ID="CDA4" Name="POKEMOUCHE AIRPORT">
  <Location Lat="47.716395" Lon="-64.882422"/>
  <Runways>
   <Runway>13</Runway>
   <Runway>31</Runway>
  </Runways>
 </Airport>
 <Airport ID="CDA5" Name="ST ANDREWS CODROY VA AIRPORT">
  <Location Lat="47.775525" Lon="-59.312586"/>
  <Runways>
   <Runway>18</Runway>
   <Runway>36</Runway>
  </Runways>
 </Airport>
 <Airport ID="CDA6" Name="BRISTOL AIRPORT">
  <Location Lat="46.459445" Lon="-67.564722"/>
  <Runways>
   <Runway>11</Runway>
   <Runway>29</Runway>
  </Runways>
 </Airport>
 <Airport ID="CDC4" Name="ST-QUENTIN AIRPORT">
  <Location Lat="47.516667" Lon="-67.416667"/>
  <Runways>
   <Runway>11</Runway>
   <Runway>29</Runway>
  </Runways>
 </Airport>
 <Airport ID="CDC5" Name="DOUGALL CAMPBELL AIRPORT">
  <Location Lat="52.010833" Lon="-121.211111"/>
  <Runways>
   <Runway>10</Runway>
   <Runway>28</Runway>
  </Runways>
 </Airport>
 <Airport ID="CDCK" Name="DAHL CREEK AIRPORT">
  <Location Lat="66.943339" Lon="-156.904675"/>
  <Runways>
   <Runway>08</Runway>
   <Runway>26</Runway>
  </Runways>
 </Airport>
 <Airport ID="CDD3" Name="STE-AGNES-DE-DUNDEE AIRPORT">
  <Location Lat="45.047500" Lon="-74.343333"/>
  <Runways>
   <Runway>07</Runway>
   <Runway>25</Runway>
  </Runways>
 </Airport>
 <Airport ID="CDH3" Name="FINLAY AIRPORT">
  <Location Lat="43.962222" Lon="-65.994167"/>
  <Runways>
   <Runway>16</Runway>
   <Runway>34</Runway>
  </Runways>
 </Airport>
 <Airport ID="CDJ4" Name="CLEARWATER AIRPORT">
  <Location Lat="46.713258" Lon="-66.828317"/>
  <Runways>
   <Runway>14</Runway>
   <Runway>32</Runway>
  </Runways>
 </Airport>
 <Airport ID="CDJ5" Name="STRATHMORE D.J. MURR AIRPORT">
  <Location Lat="51.134136" Lon="-113.560158"/>
  <Runways>
   <Runway>16</Runway>
   <Runway>34</Runway>
  </Runways>
 </Airport>
 <Airport ID="CDK2" Name="DIAVIK AIRPORT">
  <Location Lat="64.511353" Lon="-110.289728"/>
  <Runways>
   <Runway>10</Runway>
   <Runway>28</Runway>
  </Runways>
 </Airport>
 <Airport ID="CDL7" Name="DORIS LAKE AIRPORT">
  <Location Lat="68.125292" Lon="-106.585153"/>
  <Runways>
   <Runway>17</Runway>
   <Runway>35</Runway>
  </Runways>
 </Airport>
 <Airport ID="CDM2" Name="MINTY AIRPORT">
  <Location Lat="51.653195" Lon="-114.352917"/>
  <Runways>
   <Runway>15</Runway>
   <Runway>17</Runway>
   <Runway>33</Runway>
   <Runway>35</Runway>
  </Runways>
 </Airport>
 <Airport ID="CDO2" Name="OSTERGARDS AIRPORT">
  <Location Lat="51.295333" Lon="-112.610500"/>
  <Runways>
   <Runway>12</Runway>
   <Runway>30</Runway>
  </Runways>
 </Airport>
 <Airport ID="CDT5" Name="BUCTOUCHE AIRPORT">
  <Location Lat="46.509364" Lon="-64.693808"/>
  <Runways>
   <Runway>09</Runway>
   <Runway>27</Runway>
  </Runways>
 </Airport>
 <Airport ID="CDT7" Name="DUTTON AIRPORT">
  <Location Lat="42.659050" Lon="-81.512478"/>
  <Runways>
   <Runway>03</Runway>
   <Runway>21</Runway>
  </Runways>
 </Airport>
 <Airport ID="CDU6" Name="DOAKTOWN AIRPORT">
  <Location Lat="46.552422" Lon="-66.093928"/>
  <Runways>
   <Runway>11</Runway>
   <Runway>29</Runway>
  </Runways>
 </Airport>
 <Airport ID="CDV2" Name="DOWNS GULCH AIRPORT">
  <Location Lat="47.753550" Lon="-67.426017"/>
  <Runways>
   <Runway>05</Runway>
   <Runway>23</Runway>
  </Runways>
 </Airport>
 <Airport ID="CDW2" Name="BADDECK CROWN JEWEL AIRPORT">
  <Location Lat="46.164228" Lon="-60.784195"/>
  <Runways>
   <Runway>04</Runway>
   <Runway>22</Runway>
  </Runways>
 </Airport>
 <Airport ID="CDY3" Name="FOGO AIRPORT">
  <Location Lat="49.657403" Lon="-54.237436"/>
  <Runways>
   <Runway>10</Runway>
   <Runway>28</Runway>
  </Runways>
 </Airport>
 <Airport ID="CEA3" Name="OLDS-DIDSBURY AIRPORT">
  <Location Lat="51.710833" Lon="-114.106111"/>
  <Runways>
   <Runway>04</Runway>
   <Runway>10</Runway>
   <Runway>22</Runway>
   <Runway>28</Runway>
  </Runways>
 </Airport>
 <Airport ID="CEA5" Name="HARDISTY AIRPORT">
  <Location Lat="52.646945" Lon="-111.384167"/>
  <Runways>
   <Runway>07</Runway>
   <Runway>25</Runway>
  </Runways>
 </Airport>
 <Airport ID="CEA6" Name="CARDSTON AIRPORT">
  <Location Lat="49.162500" Lon="-113.241111"/>
  <Runways>
   <Runway>04</Runway>
   <Runway>22</Runway>
  </Runways>
 </Airport>
 <Airport ID="CEB5" Name="FAIRVIEW AIRPORT">
  <Location Lat="56.081267" Lon="-118.433286"/>
  <Runways>
   <Runway>04</Runway>
   <Runway>22</Runway>
  </Runways>
 </Airport>
 <Airport ID="CEC3" Name="FOX LAKE AIRPORT">
  <Location Lat="58.473333" Lon="-114.542778"/>
  <Runways>
   <Runway>08</Runway>
   <Runway>26</Runway>
  </Runways>
 </Airport>
 <Airport ID="CEC4" Name="HINTON/JASPER-HINTON AIRPORT">
  <Location Lat="53.319050" Lon="-117.753245"/>
  <Runways>
   <Runway>02</Runway>
   <Runway>20</Runway>
  </Runways>
 </Airport>
 <Airport ID="CED3" Name="OYEN AIRPORT">
  <Location Lat="51.334167" Lon="-110.491389"/>
  <Runways>
   <Runway>04</Runway>
   <Runway>14</Runway>
   <Runway>22</Runway>
   <Runway>32</Runway>
  </Runways>
 </Airport>
 <Airport ID="CED4" Name="FOX CREEK AIRPORT">
  <Location Lat="54.380000" Lon="-116.765556"/>
  <Runways>
   <Runway>10</Runway>
   <Runway>28</Runway>
  </Runways>
 </Airport>
 <Airport ID="CED5" Name="TABER AIRPORT">
  <Location Lat="49.826486" Lon="-112.184794"/>
  <Runways>
   <Runway>05</Runway>
   <Runway>13</Runway>
   <Runway>23</Runway>
   <Runway>31</Runway>
  </Runways>
 </Airport>
 <Airport ID="CEE4" Name="ENTRANCE AIRPORT">
  <Location Lat="53.381389" Lon="-117.701111"/>
  <Runways>
   <Runway>04</Runway>
   <Runway>22</Runway>
  </Runways>
 </Airport>
 <Airport ID="CEE5" Name="WABASCA AIRPORT">
  <Location Lat="55.961453" Lon="-113.818283"/>
  <Runways>
   <Runway>07</Runway>
   <Runway>25</Runway>
  </Runways>
 </Airport>
 <Airport ID="CEE6" Name="TWIN ISLAND AIRPORT">
  <Location Lat="53.471111" Lon="-113.154444"/>
  <Runways>
   <Runway>06</Runway>
   <Runway>24</Runway>
  </Runways>
 </Airport>
 <Airport ID="CEE8" Name="VIKING AIRPORT">
  <Location Lat="53.100000" Lon="-111.866667"/>
  <Runways>
   <Runway>13</Runway>
   <Runway>31</Runway>
  </Runways>
 </Airport>
 <Airport ID="CEF3" Name="BOW ISLAND AIRPORT">
  <Location Lat="49.883334" Lon="-111.333333"/>
  <Runways>
   <Runway>05</Runway>
   <Runway>23</Runway>
  </Runways>
 </Airport>
 <Airport ID="CEF4" Name="AIRDRIE AIRPORT">
  <Location Lat="51.263822" Lon="-113.934514"/>
  <Runways>
   <Runway>12</Runway>
   <Runway>30</Runway>
  </Runways>
 </Airport>
 <Airport ID="CEF6" Name="FORESTBURG AIRPORT">
  <Location Lat="52.574722" Lon="-112.084167"/>
  <Runways>
   <Runway>10</Runway>
   <Runway>28</Runway>
  </Runways>
 </Airport>
 <Airport ID="CEG3" Name="LACOMBE AIRPORT">
  <Location Lat="52.488333" Lon="-113.712222"/>
  <Runways>
   <Runway>16</Runway>
   <Runway>34</Runway>
  </Runways>
 </Airport>
 <Airport ID="CEG4" Name="DRUMHELLER MUN AIRPORT">
  <Location Lat="51.496314" Lon="-112.748592"/>
  <Runways>
   <Runway>16</Runway>
   <Runway>34</Runway>
  </Runways>
 </Airport>
 <Airport ID="CEG5" Name="CHIPEWYAN LAKE AIRPORT">
  <Location Lat="56.952500" Lon="-113.495556"/>
  <Runways>
   <Runway>10</Runway>
   <Runway>28</Runway>
  </Runways>
 </Airport>
 <Airport ID="CEG8" Name="NORTH SEAL RIVER AIRPORT">
  <Location Lat="58.969445" Lon="-99.975000"/>
  <Runways>
   <Runway>03</Runway>
   <Runway>21</Runway>
  </Runways>
 </Airport>
 <Airport ID="CEH2" Name="CU NIM AIRPORT">
  <Location Lat="50.723056" Lon="-114.178611"/>
  <Runways>
   <Runway>07</Runway>
   <Runway>14</Runway>
   <Runway>25</Runway>
   <Runway>32</Runway>
  </Runways>
 </Airport>
 <Airport ID="CEH3" Name="PONOKA INDUSTRIAL-LA AIRPORT">
  <Location Lat="52.651850" Lon="-113.604439"/>
  <Runways>
   <Runway>16</Runway>
   <Runway>34</Runway>
  </Runways>
 </Airport>
 <Airport ID="CEH4" Name="SOUTH CALGARY AIRPORT">
  <Location Lat="50.822000" Lon="-113.824333"/>
  <Runways>
   <Runway>10</Runway>
   <Runway>16</Runway>
   <Runway>28</Runway>
   <Runway>34</Runway>
  </Runways>
 </Airport>
 <Airport ID="CEH5" Name="RED EARTH CREEK AIRPORT">
  <Location Lat="56.546167" Lon="-115.275500"/>
  <Runways>
   <Runway>13</Runway>
   <Runway>31</Runway>
  </Runways>
 </Airport>
 <Airport ID="CEH6" Name="PROVOST AIRPORT">
  <Location Lat="52.337945" Lon="-110.278664"/>
  <Runways>
   <Runway>12</Runway>
   <Runway>30</Runway>
  </Runways>
 </Airport>
 <Airport ID="CEJ3" Name="STETTLER AIRPORT">
  <Location Lat="52.310000" Lon="-112.753889"/>
  <Runways>
   <Runway>07</Runway>
   <Runway>25</Runway>
  </Runways>
 </Airport>
 <Airport ID="CEJ4" Name="CLARESHOLM INDUSTRIA AIRPORT">
  <Location Lat="50.004722" Lon="-113.630000"/>
  <Runways>
   <Runway>03</Runway>
   <Runway>21</Runway>
  </Runways>
 </Airport>
 <Airport ID="CEJ6" Name="ELK POINT AIRPORT">
  <Location Lat="53.893056" Lon="-110.772222"/>
  <Runways>
   <Runway>07</Runway>
   <Runway>25</Runway>
  </Runways>
 </Airport>
 <Airport ID="CEK2" Name="BRAEBURN AIRPORT">
  <Location Lat="61.484445" Lon="-135.776389"/>
  <Runways>
   <Runway>15</Runway>
   <Runway>33</Runway>
  </Runways>
 </Airport>
 <Airport ID="CEK6" Name="FLAGSTAFF REGL AIRPORT">
  <Location Lat="52.795667" Lon="-111.760564"/>
  <Runways>
   <Runway>12</Runway>
   <Runway>30</Runway>
  </Runways>
 </Airport>
 <Airport ID="CEL4" Name="HANNA AIRPORT">
  <Location Lat="51.631389" Lon="-111.904167"/>
  <Runways>
   <Runway>02</Runway>
   <Runway>12</Runway>
   <Runway>15</Runway>
   <Runway>20</Runway>
   <Runway>30</Runway>
   <Runway>33</Runway>
  </Runways>
 </Airport>
 <Airport ID="CEL5" Name="VALLEYVIEW AIRPORT">
  <Location Lat="55.032500" Lon="-117.295833"/>
  <Runways>
   <Runway>07</Runway>
   <Runway>25</Runway>
  </Runways>
 </Airport>
 <Airport ID="CEL6" Name="TWO HILLS AIRPORT">
  <Location Lat="53.700000" Lon="-111.783333"/>
  <Runways>
   <Runway>12</Runway>
   <Runway>30</Runway>
  </Runways>
 </Airport>
 <Airport ID="CEL8" Name="ELEONORE AIRPORT">
  <Location Lat="52.718739" Lon="-76.080392"/>
  <Runways>
   <Runway>09</Runway>
   <Runway>27</Runway>
  </Runways>
 </Airport>
 <Airport ID="CEM3" Name="WHA TI AIRPORT">
  <Location Lat="63.131803" Lon="-117.246081"/>
  <Runways>
   <Runway>10</Runway>
   <Runway>28</Runway>
  </Runways>
 </Airport>
 <Airport ID="CEM4" Name="INNISFAIL AIRPORT">
  <Location Lat="52.078611" Lon="-114.027500"/>
  <Runways>
   <Runway>04</Runway>
   <Runway>10</Runway>
   <Runway>16</Runway>
   <Runway>22</Runway>
   <Runway>28</Runway>
   <Runway>34</Runway>
  </Runways>
 </Airport>
 <Airport ID="CEM5" Name="SWAN HILLS AIRPORT">
  <Location Lat="54.670833" Lon="-115.414722"/>
  <Runways>
   <Runway>10</Runway>
   <Runway>28</Runway>
  </Runways>
 </Airport>
 <Airport ID="CEN2" Name="BASSANO AIRPORT">
  <Location Lat="50.800000" Lon="-112.466667"/>
  <Runways>
   <Runway>07</Runway>
   <Runway>25</Runway>
  </Runways>
 </Airport>
 <Airport ID="CEN3" Name="THREE HILLS AIRPORT">
  <Location Lat="51.696667" Lon="-113.209167"/>
  <Runways>
   <Runway>11</Runway>
   <Runway>29</Runway>
  </Runways>
 </Airport>
 <Airport ID="CEN4" Name="HIGH RIVER AIRPORT">
  <Location Lat="50.533333" Lon="-113.833334"/>
  <Runways>
   <Runway>06</Runway>
   <Runway>14</Runway>
   <Runway>24</Runway>
   <Runway>32</Runway>
  </Runways>
 </Airport>
 <Airport ID="CEN5" Name="COLD LAKE REGL AIRPORT">
  <Location Lat="54.477583" Lon="-110.269075"/>
  <Runways>
   <Runway>08</Runway>
   <Runway>26</Runway>
  </Runways>
 </Airport>
 <Airport ID="CEN6" Name="VAUXHALL AIRPORT">
  <Location Lat="50.033333" Lon="-112.083333"/>
  <Runways>
   <Runway>05</Runway>
   <Runway>23</Runway>
  </Runways>
 </Airport>
 <Airport ID="CEP3" Name="BARRHEAD AIRPORT">
  <Location Lat="54.096881" Lon="-114.438842"/>
  <Runways>
   <Runway>07</Runway>
   <Runway>25</Runway>
  </Runways>
 </Airport>
 <Airport ID="CEP4" Name="ROSS INTERNATIONAL AIRPORT">
  <Location Lat="49.000000" Lon="-111.966667"/>
  <Runways>
   <Runway>07</Runway>
   <Runway>25</Runway>
  </Runways>
 </Airport>
 <Airport ID="CEP5" Name="JANVIER AIRPORT">
  <Location Lat="55.900000" Lon="-110.733333"/>
  <Runways>
   <Runway>13</Runway>
   <Runway>31</Runway>
  </Runways>
 </Airport>
 <Airport ID="CEP6" Name="WARNER AIRPORT">
  <Location Lat="49.293400" Lon="-112.189133"/>
  <Runways>
   <Runway>06</Runway>
   <Runway>24</Runway>
  </Runways>
 </Airport>
 <Airport ID="CEQ3" Name="CAMROSE AIRPORT">
  <Location Lat="53.039817" Lon="-112.816245"/>
  <Runways>
   <Runway>14</Runway>
   <Runway>32</Runway>
  </Runways>
 </Airport>
 <Airport ID="CEQ4" Name="WHETSTONE INTERNATIONAL AIRPORT">
  <Location Lat="48.998667" Lon="-112.776253"/>
  <Runways>
   <Runway>07</Runway>
   <Runway>25</Runway>
  </Runways>
 </Airport>
 <Airport ID="CEQ5" Name="GRANDE CACHE AIRPORT">
  <Location Lat="53.917000" Lon="-118.874167"/>
  <Runways>
   <Runway>08</Runway>
   <Runway>26</Runway>
  </Runways>
 </Airport>
 <Airport ID="CER2" Name="CASTOR AIRPORT">
  <Location Lat="52.216667" Lon="-111.933334"/>
  <Runways>
   <Runway>13</Runway>
   <Runway>31</Runway>
  </Runways>
 </Airport>
 <Airport ID="CER3" Name="DRAYTON VALLEY INDUS AIRPORT">
  <Location Lat="53.265833" Lon="-114.960278"/>
  <Runways>
   <Runway>14</Runway>
   <Runway>32</Runway>
  </Runways>
 </Airport>
 <Airport ID="CER4" Name="MILDRED LAKE AIRPORT">
  <Location Lat="57.055461" Lon="-111.574011"/>
  <Runways>
   <Runway>11</Runway>
   <Runway>29</Runway>
  </Runways>
 </Airport>
 <Airport ID="CES2" Name="ST-ESPRIT AIRPORT">
  <Location Lat="45.911389" Lon="-73.672500"/>
  <Runways>
   <Runway>02</Runway>
   <Runway>20</Runway>
  </Runways>
 </Airport>
 <Airport ID="CES4" Name="WESTLOCK AIRPORT">
  <Location Lat="54.142222" Lon="-113.740833"/>
  <Runways>
   <Runway>10</Runway>
   <Runway>28</Runway>
  </Runways>
 </Airport>
 <Airport ID="CET2" Name="LEISMER AIRPORT">
  <Location Lat="55.696050" Lon="-111.279325"/>
  <Runways>
   <Runway>09</Runway>
   <Runway>27</Runway>
  </Runways>
 </Airport>
 <Airport ID="CET4" Name="FT SIMPSON I AIRPORT">
  <Location Lat="61.866667" Lon="-121.366111"/>
  <Runways>
   <Runway>13</Runway>
   <Runway>31</Runway>
  </Runways>
 </Airport>
 <Airport ID="CET9" Name="JEAN MARIE RIVER AIRPORT">
  <Location Lat="61.522370" Lon="-120.624872"/>
  <Runways>
   <Runway>11</Runway>
   <Runway>29</Runway>
  </Runways>
 </Airport>
 <Airport ID="CEU2" Name="BEAVERLODGE AIRPORT">
  <Location Lat="55.184461" Lon="-119.447492"/>
  <Runways>
   <Runway>07</Runway>
   <Runway>25</Runway>
  </Runways>
 </Airport>
 <Airport ID="CEU9" Name="TROUT LAKE AIRPORT">
  <Location Lat="60.440339" Lon="-121.236197"/>
  <Runways>
   <Runway>14</Runway>
   <Runway>32</Runway>
  </Runways>
 </Airport>
 <Airport ID="CEV2" Name="EDRA AIRPORT">
  <Location Lat="57.850000" Lon="-113.250000"/>
  <Runways>
   <Runway>12</Runway>
   <Runway>30</Runway>
  </Runways>
 </Airport>
 <Airport ID="CEV3" Name="VEGREVILLE AIRPORT">
  <Location Lat="53.513945" Lon="-112.027419"/>
  <Runways>
   <Runway>13</Runway>
   <Runway>31</Runway>
  </Runways>
 </Airport>
 <Airport ID="CEV5" Name="MAYERTHORPE AIRPORT">
  <Location Lat="53.937500" Lon="-115.178889"/>
  <Runways>
   <Runway>12</Runway>
   <Runway>30</Runway>
  </Runways>
 </Airport>
 <Airport ID="CEV7" Name="TOFIELD AIRPORT">
  <Location Lat="53.371111" Lon="-112.696667"/>
  <Runways>
   <Runway>10</Runway>
   <Runway>28</Runway>
  </Runways>
 </Airport>
 <Airport ID="CEV9" Name="SNARE RIVER AIRPORT">
  <Location Lat="63.433333" Lon="-116.183333"/>
  <Runways>
   <Runway>11</Runway>
   <Runway>29</Runway>
  </Runways>
 </Airport>
 <Airport ID="CEW3" Name="ST PAUL AIRPORT">
  <Location Lat="53.993734" Lon="-111.377947"/>
  <Runways>
   <Runway>08</Runway>
   <Runway>26</Runway>
  </Runways>
 </Airport>
 <Airport ID="CEW5" Name="MILK RIVER AIRPORT">
  <Location Lat="49.133333" Lon="-112.050833"/>
  <Runways>
   <Runway>05</Runway>
   <Runway>23</Runway>
  </Runways>
 </Airport>
 <Airport ID="CEX3" Name="WETASKIWIN AIRPORT">
  <Location Lat="52.964931" Lon="-113.411095"/>
  <Runways>
   <Runway>12</Runway>
   <Runway>30</Runway>
  </Runways>
 </Airport>
 <Airport ID="CEX4" Name="CARMACKS AIRPORT">
  <Location Lat="62.110833" Lon="-136.178333"/>
  <Runways>
   <Runway>09</Runway>
   <Runway>27</Runway>
  </Runways>
 </Airport>
 <Airport ID="CEX9" Name="BRANT DIXON FARM AIRPORT">
  <Location Lat="50.419445" Lon="-113.540833"/>
  <Runways>
   <Runway>16</Runway>
   <Runway>34</Runway>
  </Runways>
 </Airport>
 <Airport ID="CEY3" Name="FT MACLEOD AIRPORT">
  <Location Lat="49.700000" Lon="-113.416667"/>
  <Runways>
   <Runway>06</Runway>
   <Runway>24</Runway>
  </Runways>
 </Airport>
 <Airport ID="CEZ2" Name="CHAPMAN AIRPORT">
  <Location Lat="64.900000" Lon="-138.266667"/>
  <Runways>
   <Runway>15</Runway>
   <Runway>33</Runway>
  </Runways>
 </Airport>
 <Airport ID="CEZ3" Name="COOKING LAKE AIRPORT">
  <Location Lat="53.427528" Lon="-113.115567"/>
  <Runways>
   <Runway>10</Runway>
   <Runway>28</Runway>
  </Runways>
 </Airport>
 <Airport ID="CEZ4" Name="FT VERMILION AIRPORT">
  <Location Lat="58.404053" Lon="-115.948122"/>
  <Runways>
   <Runway>08</Runway>
   <Runway>26</Runway>
  </Runways>
 </Airport>
 <Airport ID="CFA4" Name="CARCROSS AIRPORT">
  <Location Lat="60.174167" Lon="-134.697778"/>
  <Runways>
   <Runway>05</Runway>
   <Runway>23</Runway>
  </Runways>
 </Airport>
 <Airport ID="CFA5" Name="GRANDE AIRPORT">
  <Location Lat="56.300000" Lon="-112.233333"/>
  <Runways>
   <Runway>03</Runway>
   <Runway>21</Runway>
  </Runways>
 </Airport>
 <Airport ID="CFA7" Name="TALTHEILEI NARROWS AIRPORT">
  <Location Lat="62.597197" Lon="-111.541350"/>
  <Runways>
   <Runway>05</Runway>
   <Runway>23</Runway>
  </Runways>
 </Airport>
 <Airport ID="CFB3" Name="HESPERO AIRPORT">
  <Location Lat="52.300000" Lon="-114.463611"/>
  <Runways>
   <Runway>02</Runway>
   <Runway>11</Runway>
   <Runway>20</Runway>
   <Runway>29</Runway>
  </Runways>
 </Airport>
